stop_id,stop_code,stop_name,stop_lat,stop_lon,zone_id,stop_url,location_type,wheelchair_boarding
201,,Fremantle Dr after 1st McKail Cr,-35.347043,149.047943,,,0,0
300,,Ainslie PS Donaldson St,-35.27362,149.140829,,,0,0
401,,MacFarlane Burnet Av after 1st Eccles Cct,-35.21606,149.00305,,,0,0
402,,MacFarlane Burnet Av before Hollows Cct,-35.212836,149.004189,,,0,0
403,,MacFarlane Burnet Av after Hollows Cct,-35.212665,149.004016,,,0,0
404,,MacFarlane Burnet Av before De Gruchy Pl,-35.2162,149.003141,,,0,0
405,,MacFarlane Burnet Av after Constance Stone St,-35.209343,149.00322,,,0,0
406,,MacFarlane Burnet Av opp Constance Stone St,-35.209295,149.002975,,,0,0
600,,O'Hanlon Pl after Gold Creek Rd,-35.192122,149.08597,,,0,0
601,,O'Hanlon Pl before Gold Creek Rd,-35.192143,149.08607,,,0,0
1001,,Drumston St opp MacKillop College,-35.426112,149.091607,,,0,0
1002,,Mackillop College Drumston St,-35.425974,149.091709,,,0,0
1007,,Ellerston Av opp Isabella Plains Shops,-35.427862,149.091027,,,0,0
1008,,Isabella Plains Shops Ellerston Av,-35.427477,149.09142,,,0,0
1009,,Mackillop College Ellerston Av,-35.425654,149.095483,,,0,0
1010,,Ellerston Av opp Mackillop College,-35.425764,149.095466,,,0,0
1011,,Ellerston Av before 1st Abercorn Cr,-35.426368,149.098008,,,0,0
1012,,Ellerston Av opp 2nd Abercorn Cr,-35.426603,149.098114,,,0,0
1013,,Ellerston Av before 2nd Abercorn Cr,-35.428486,149.100623,,,0,0
1014,,Ellerston Av before 2nd Groveland Cr,-35.428391,149.10036,,,0,0
1015,,Ellerston Av before Ashley Dr,-35.42879,149.102889,,,0,0
1016,,Ellerston Av after Ashley Dr,-35.428922,149.102838,,,0,0
1017,,Calwell Shops Webber Cr,-35.435094,149.113745,,,0,0
1018,,Boddington Cr after Bacchus Cct,-35.379387,149.054883,,,0,0
1019,,Casey Cr before Carpenter Cl,-35.436661,149.11129,,,0,0
1020,,Casey Cr opp Carpenter Cl,-35.436859,149.110846,,,0,0
1027,,Duggan St after Downard St,-35.439864,149.098624,,,0,0
1028,,Duggan St after Beckett St,-35.439836,149.098479,,,0,0
1029,,Duggan St before 1st Pennington Cr,-35.441602,149.100907,,,0,0
1030,,Duggan St before 2nd Andrew Cr,-35.441603,149.101116,,,0,0
1031,,Tharwa Dr after Duggan St,-35.444823,149.10572,,,0,0
1032,,Tharwa Dr before Duggan St,-35.444455,149.103996,,,0,0
1033,,Lawrence Wackett Cr opp Theodore PS,-35.447275,149.124613,,,0,0
1034,,Theodore PS Lawrence Wackett Cr,-35.447346,149.124487,,,0,0
1035,,Lawrence Wackett Cr after 1st Burdett Cr,-35.449867,149.122566,,,0,0
1036,,Lawrence Wackett Cr before Chippindall Cct,-35.450002,149.122491,,,0,0
1037,,Chippindall Cct opp Goldfinch Cct,-35.450823,149.120097,,,0,0
1038,,Chippindall Cct after Latchford St,-35.45072,149.120304,,,0,0
1044,,Hurtle Av after 1st Noarlunga Cr,-35.434802,149.086149,,,0,0
1045,,Hurtle Av opp 2nd Noarlunga Cr,-35.434726,149.085969,,,0,0
1046,,Barr Smith Av after Salas St,-35.42673,149.074178,,,0,0
1047,,Barr Smith Av after Don Dunstan Dr,-35.426899,149.074185,,,0,0
1052,,Barr Smith Av opp Hurtle Av,-35.431101,149.080008,,,0,0
1053,,Barr Smith Av after Hurtle Av,-35.431263,149.08006,,,0,0
1054,,Hurtle Av opp Ebenezer St,-35.434405,149.083587,,,0,0
1055,,Hurtle Av after Ebenezer St,-35.433937,149.082881,,,0,0
1056,,Hurtle Av opp Bonython PS,-35.432126,149.08231,,,0,0
1057,,Bonython PS Hurtle Av,-35.431441,149.082295,,,0,0
1059,,Homeworld Soward Way,-35.418682,149.067883,,,0,0
1060,,Boddington Cr before Reynell Pl,-35.379517,149.055117,,,0,0
1061,,Soward Way after Anketell St,-35.417271,149.070695,,,0,0
1062,,Soward Way before Anketell St,-35.417379,149.070745,,,0,0
1063,,Tuggeranong Bus Depot Scollay St,-35.422657,149.06973,,,0,0
1064,,Scollay St opp Tuggeranong Bus Depot,-35.421808,149.069227,,,0,0
1065,,Anketell St before Oakden St,-35.422697,149.072912,,,0,0
1066,,Anketell St before Athllon Dr,-35.423711,149.07387,,,0,0
1067,,Anketell St opp Tuggeranong Square,-35.419798,149.070847,,,0,0
1068,,Tuggeranong Square Anketell St,-35.419976,149.070832,,,0,0
1069,,Ellerston Av before Noorooma St,-35.430392,149.08816,,,0,0
1070,,Ellerston Av opp Noorooma St,-35.430127,149.088257,,,0,0
1071,,Ellerston Av after Keverstone Cct,-35.431594,149.088799,,,0,0
1072,,Ellerston Av opp Keverstone Cct,-35.431555,149.088905,,,0,0
1073,,Ellerston Av after Jasper Cl,-35.431903,149.092371,,,0,0
1074,,Ellerston Av before 2nd Kadina Cr,-35.431674,149.092063,,,0,0
1075,,Ellerston Av after Johnston Dr,-35.433965,149.094672,,,0,0
1076,,Ellerston Av before Johnson Dr,-35.433781,149.094651,,,0,0
1077,,Outtrim Av before Duggan St,-35.435753,149.098665,,,0,0
1078,,Outtrim Av opp Duggan St,-35.435688,149.09841,,,0,0
1079,,Outtrim Av before 2nd Carter Cr,-35.435899,149.102015,,,0,0
1080,,Outtrim Av after Gurr St,-35.435979,149.101939,,,0,0
1081,,Outtrim Av after 2nd Carter Cr,-35.436062,149.104675,,,0,0
1082,,Outtrim Av before Gurr St,-35.436087,149.104832,,,0,0
1083,,Outtrim Av after Costello Cct,-35.435623,149.109478,,,0,0
1084,,Outtrim Av after Mountain Cct,-35.435705,149.109488,,,0,0
1085,,Calwell PS Casey Cr,-35.438693,149.110352,,,0,0
1086,,Casey Cr opp Calwell PS,-35.43858,149.110412,,,0,0
1089,,Casey Cr after O'Connor Cct,-35.440019,149.113137,,,0,0
1090,,Casey Cr opp O'Connor Cct,-35.439958,149.113233,,,0,0
1091,,Calwell Park & Ride Johnson Dr,-35.433499,149.111284,,,0,0
1092,,Casey Cr opp Calwell HS,-35.441119,149.115918,,,0,0
1093,,Johnson Dr Opp Calwell Park & Ride,-35.43321,149.112594,,,0,0
1094,,St Francis of Assisi PS Casey Cr,-35.441065,149.118881,,,0,0
1095,,Were St before Tharwa Dr,-35.440384,149.12072,,,0,0
1096,,Were St after Tharwa Dr,-35.440535,149.120676,,,0,0
1109,,Louis Loder St at 1st Vonwiller Cr,-35.445646,149.116782,,,0,0
1110,,Louis Loder St before 2nd Hartung Cr,-35.445576,149.11667,,,0,0
1111,,Louis Loder St after 2nd Mehaffey Cr,-35.446537,149.114521,,,0,0
1112,,Louis Loder St opp 1st Hartung Cr,-35.446523,149.114891,,,0,0
1113,,Louis Loder St after 1st Cochrane Cr,-35.44801,149.115224,,,0,0
1114,,44 Louis Loder St,-35.448128,149.115262,,,0,0
1115,,Louis Loder St before 2nd Vonwiller Cr,-35.450545,149.117412,,,0,0
1116,,Louis Loder St at 2nd Conlon Cr,-35.450595,149.117269,,,0,0
1117,,Clift Cr before Johnson Dr,-35.43325,149.118429,,,0,0
1118,,Clift Cr after Johnson Dr,-35.433112,149.118228,,,0,0
1119,,Clift Cr after 2nd Chauncy Cr,-35.431157,149.119171,,,0,0
1120,,Clift Cr after 1st Fullerton Cr,-35.431117,149.119349,,,0,0
1121,,Deamer Cr before Meeson St,-35.429241,149.121439,,,0,0
1122,,Deamer Cr before Clift Cr,-35.429355,149.120942,,,0,0
1123,,Deamer Cr before 2nd Twamley Cr,-35.430849,149.123538,,,0,0
1124,,Deamer Cr opp 1st Twamley Cr,-35.430915,149.123421,,,0,0
1125,,69 Deamer Cr,-35.431494,149.127065,,,0,0
1126,,Deamer Cr opp 69,-35.431724,149.126983,,,0,0
1127,,Deamer Cr opp 1st Nina Jones Cr,-35.429424,149.128794,,,0,0
1128,,Deamer Cr after 2nd Nina Jones Cr,-35.429786,149.128673,,,0,0
1129,,Deamer Cr after Heagney Cr,-35.427319,149.129802,,,0,0
1130,,Deamer Cr before Heagney Cr,-35.427189,149.129613,,,0,0
1131,,Heagney Cr before Deamer Cr,-35.426486,149.130996,,,0,0
1132,,Heagney Cr opp Deamer Cr,-35.426567,149.130245,,,0,0
1133,,Heagney Cr before 2nd Couchman Cr,-35.424588,149.133212,,,0,0
1134,,Heagney Cr before Enid Lorimer Cct,-35.424695,149.133027,,,0,0
1135,,Heagney Cr before 1st Couchman Cr,-35.423045,149.13492,,,0,0
1136,,Heagney Cr after Enid Lorimer Cct,-35.423025,149.13453,,,0,0
1137,,Heagney Cr after 1st Henry Melville Cr,-35.421379,149.135994,,,0,0
1138,,Heagney Cr after 2nd Emily Bulcock Cr,-35.420927,149.136018,,,0,0
1139,,Heagney Cr opp Gilmore PS,-35.419229,149.136097,,,0,0
1140,,Gilmore PS Heagney Cr,-35.419093,149.135985,,,0,0
1143,,Proctor St opp Maclean St,-35.415211,149.12515,,,0,0
1144,,Proctor St after MacLean St,-35.415327,149.125257,,,0,0
1147,,Chisholm Shops Benham St,-35.414421,149.129066,,,0,0
1148,,Benham St opp Chisholm Shops,-35.414484,149.129233,,,0,0
1149,,Coyne St before Carson St,-35.409005,149.127953,,,0,0
1150,,Coyne St opp Carson St,-35.409158,149.127772,,,0,0
1151,,19 Coyne St,-35.409167,149.123106,,,0,0
1152,,Coyne St opp 19,-35.409226,149.122726,,,0,0
1153,,Bugden Av before 2nd Larcombe Cr,-35.406964,149.120433,,,0,0
1154,,Bugden Av before Coyne St,-35.406757,149.120472,,,0,0
1155,,Bugden Av before 2nd Demaine Cr,-35.404229,149.122455,,,0,0
1156,,Bugden Av after Fihelly St,-35.404353,149.121963,,,0,0
1157,,Bugden Av before 1st Mullan St,-35.402395,149.124135,,,0,0
1158,,Bugden Av opp 2nd Mullan St,-35.401231,149.123513,,,0,0
1159,,Bugden Av after 2nd Mullan St,-35.398518,149.122122,,,0,0
1160,,Bugden Av opp 309,-35.398621,149.122257,,,0,0
1161,,Bugden Av after 1st Dash Cr,-35.400242,149.115685,,,0,0
1162,,Bugden Av after Partridge St,-35.401436,149.114272,,,0,0
1163,,Bugden Av opp 2nd Maughan Cr,-35.40132,149.112769,,,0,0
1164,,Bugden Av before 2nd Maughan Cr,-35.401832,149.110301,,,0,0
1165,,Bugden Av after 1st Appel Cr,-35.401708,149.110045,,,0,0
1166,,Bugden Av after Sternberg Cr,-35.40265,149.107483,,,0,0
1167,,Bugden Av before Sternberg Cr,-35.402691,149.107556,,,0,0
1168,,Bugden Av before 2nd Appel Cr,-35.39954,149.115823,,,0,0
1170,,Sternberg Cr after Erindale Dr,-35.402261,149.103288,,,0,0
1171,,Sternberg Cr after Ashley Dr,-35.401941,149.100575,,,0,0
1172,,Erindale Interchange Plt 1,-35.403649,149.099162,,,0,0
1173,,Erindale Interchange Plt 2,-35.404053,149.099282,,,0,0
1174,,Sternberg Cr before Maltby Cct,-35.401992,149.102749,,,0,0
1176,,Erindale College McBryde Cr,-35.403907,149.095995,,,0,0
1177,,McBryde Cr opp Erindale College,-35.404224,149.096148,,,0,0
1178,,Amsinck St after McBryde Cr,-35.405554,149.093547,,,0,0
1179,,Amsinck St before McBryde Cr,-35.405601,149.093296,,,0,0
1180,,MacKillop College McBryde Cr,-35.406139,149.090581,,,0,0
1181,,McBryde Cr opp MacKillop College,-35.406264,149.090564,,,0,0
1182,,Woodcock Dr before Clare Dennis Av,-35.441863,149.086183,,,0,0
1183,,Woodcock Dr opp Clare Dennis Av,-35.441692,149.086154,,,0,0
1184,,Clare Dennis Av before Armbruster St,-35.443044,149.085974,,,0,0
1185,,Clare Dennis Av before 1st Fred Ln Cr,-35.445159,149.0878,,,0,0
1186,,Clare Dennis Av before 2nd Fred Ln Cr,-35.446768,149.086077,,,0,0
1187,,Clare Dennis Av before Preddey Way,-35.447089,149.08384,,,0,0
1188,,Lewis Luxton Av after Preddy Way,-35.448402,149.086122,,,0,0
1189,,Lewis Luxton Av opp Blinkhorn Pl,-35.450436,149.08909,,,0,0
1190,,Lewis Luxton Av opp 2nd Cerutty Cr,-35.452903,149.08797,,,0,0
1191,,Knoke Av opp Gordon PS,-35.458121,149.086118,,,0,0
1192,,Knoke Av before Oxenham Cct,-35.460578,149.085659,,,0,0
1193,,Knoke Av after Jim Pike Av,-35.462281,149.083208,,,0,0
1194,,Jim Pike Av before Clem Hill St,-35.462016,149.079911,,,0,0
1195,,Callaway Cr at 1st Myles Connell Cr,-35.459068,149.080047,,,0,0
1196,,39 Callaway Cr,-35.460036,149.081737,,,0,0
1197,,Bugden Av after 2nd Chataway Cr,-35.398638,149.117563,,,0,0
1198,,Bugden Av opp 1st Chataway Cr,-35.398045,149.118252,,,0,0
1199,,Knoke Av after Clem Hill St,-35.464786,149.084188,,,0,0
1200,,Knoke Av after 2nd Harry Hopman Cct,-35.467259,149.087641,,,0,0
1201,,Knoke Av after 1st Harry Hopman Cct,-35.472807,149.089281,,,0,0
1202,,Pockett Av after Bellchambers Cr,-35.474078,149.093168,,,0,0
1203,,Pockett Av after Wilson Cr,-35.471702,149.096924,,,0,0
1204,,Pockett Av after 2nd Ironbark Cr,-35.469475,149.097634,,,0,0
1205,,Pockett Av after Perrin Cct,-35.467558,149.095362,,,0,0
1206,,Pockett Av before Thomas Hart St,-35.46528,149.094099,,,0,0
1207,,Tom Roberts Av before Box Hill Av,-35.463823,149.096494,,,0,0
1208,,Tom Roberts Av opp Charles Conder PS,-35.465324,149.098411,,,0,0
1210,,Tom Roberts Av before Jane Sutherland St,-35.466303,149.105607,,,0,0
1211,,Tom Roberts Av before 1st Templestowe Av,-35.462228,149.105193,,,0,0
1212,,Tom Roberts Av opp John Russell Cct,-35.461222,149.102208,,,0,0
1213,,Tom Roberts Av after Box Hill Av,-35.460419,149.099253,,,0,0
1214,,Tom Roberts Av after 1st Beaumaris St,-35.466403,149.10042,,,0,0
1215,,Box Hill Av opp Lanyon Marketplace,-35.456171,149.092495,,,0,0
1216,,Box Hill Av opp St Clare of Assisi PS,-35.457716,149.097362,,,0,0
1217,,Lanyon Marketplace Box Hill Av,-35.456354,149.092463,,,0,0
1218,,St Clare of Assisi PS Box Hill Av,-35.457981,149.097464,,,0,0
1219,,Tom Roberts Av before Box Hill Av,-35.46047,149.099015,,,0,0
1220,,Tom Roberts Av before Altson Cct,-35.461297,149.10181,,,0,0
1221,,Tom Roberts Av before Lethbridge St,-35.462199,149.104985,,,0,0
1223,,Charles Conder PS Tom Roberts Av,-35.464854,149.097978,,,0,0
1224,,Pockett Av before Box Hill Av,-35.464987,149.093953,,,0,0
1225,,Pockett Av before 2nd Tregellas Cr,-35.46759,149.095269,,,0,0
1226,,Pockett Av opp Wiburd St,-35.470394,149.097662,,,0,0
1227,,Banks Shops Pockett Av,-35.472431,149.095951,,,0,0
1228,,Pockett Av before Brockway Cct,-35.473497,149.091731,,,0,0
1229,,Knoke Av after Coventry Cl,-35.472849,149.089454,,,0,0
1230,,Knoke Av after Minnett Cl,-35.470765,149.088898,,,0,0
1231,,Knoke Av opp O'Hara Cl,-35.470876,149.088786,,,0,0
1232,,Knoke Av before 2nd Mina Wylie Cr,-35.467176,149.087682,,,0,0
1233,,Knoke Av before Matson St,-35.46567,149.085585,,,0,0
1234,,Knoke Av opp Jim Pike Av,-35.461984,149.083647,,,0,0
1235,,Knoke Av after Midge St,-35.460663,149.085728,,,0,0
1237,,Lewis Luxton Av before 1st Cerutty Cr,-35.452995,149.087346,,,0,0
1238,,Lewis Luxton Av before Blinkhorn Pl,-35.450896,149.089342,,,0,0
1239,,61 Lewis Luxton Av,-35.448733,149.087143,,,0,0
1240,,Preddy Way at Fingleton Cr,-35.448164,149.084205,,,0,0
1241,,Clare Dennis Av before 2nd Noel Ryan Gdn,-35.446543,149.085447,,,0,0
1242,,Clare Dennis Av opp Churchill Way,-35.444641,149.087167,,,0,0
1243,,Clare Dennis Av after Woodfull Lp,-35.44312,149.085845,,,0,0
1246,,Cooleman Court Terminus,-35.340842,149.052341,,,0,0
1248,,Streeton Dr before 1st Fremantle Dr,-35.34468,149.047096,,,0,0
1249,,Streeton Dr before Hindmarsh Dr,-35.344613,149.047036,,,0,0
1250,,Fremantle Dr after Streeton Dr,-35.346407,149.046936,,,0,0
1251,,Fremantle Dr before Streeton Dr,-35.3466,149.047038,,,0,0
1252,,Fremantle Dr before Bunbury St,-35.348284,149.049235,,,0,0
1253,,Fremantle Dr opp 1st McKail Cr,-35.34736,149.048194,,,0,0
1258,,Namatjira Dr opp St John Vianney,-35.352146,149.053761,,,0,0
1259,,Namatjira Dr after Streeton Dr,-35.355188,149.050493,,,0,0
1260,,St John Vianney Namatjira Dr,-35.351922,149.05415,,,0,0
1261,,Tom Roberts Av after Wiburd St,-35.466561,149.100512,,,0,0
1262,,Wiburd St before Pockett Av,-35.469931,149.098659,,,0,0
1263,,Namatjira Dr after Badimara St,-35.355115,149.050801,,,0,0
1264,,Namatjira Dr opp Perry Dr,-35.35848,149.047931,,,0,0
1265,,Namatjira Dr before Kapunda St,-35.360591,149.047806,,,0,0
1266,,Namatjira Dr opp 204,-35.363484,149.049719,,,0,0
1267,,241 Namatjira Dr,-35.366088,149.051516,,,0,0
1268,,Namatjira Dr opp 241,-35.366007,149.051368,,,0,0
1269,,Namatjira Dr after Perry Dr,-35.358207,149.047876,,,0,0
1270,,Namatjira Dr before Perry Dr,-35.360443,149.047657,,,0,0
1271,,204 Namatjira Dr,-35.363559,149.049614,,,0,0
1272,,Kambah Pool Rd after Sulwood Dr,-35.375136,149.048963,,,0,0
1273,,Kambah Pool Rd after Barritt St,-35.37534,149.048615,,,0,0
1274,,Barritt St after Kambah Pool Rd,-35.377991,149.048365,,,0,0
1275,,Barritt St before Kambah Pool Rd,-35.378093,149.048299,,,0,0
1276,,Barritt St before Boddington Cr,-35.380209,149.05186,,,0,0
1277,,Barritt St after Boddington Cr,-35.379861,149.051195,,,0,0
1278,,Boddington Cr before Barritt St,-35.381211,149.051777,,,0,0
1279,,Boddington Cr after Carleton St,-35.382091,149.051152,,,0,0
1280,,Boddington Cr opp Carleton St,-35.382089,149.051281,,,0,0
1281,,Boddington Cr before 1st Castley Cct,-35.385031,149.050564,,,0,0
1282,,Boddington Cr after 2nd Crozier Cct,-35.385778,149.050416,,,0,0
1283,,Boddington Cr after 2nd Castley Cct,-35.389283,149.051643,,,0,0
1284,,Boddington Cr after Bateman St,-35.389192,149.051368,,,0,0
1285,,Boddington Cr opp McLeod Pl,-35.390043,149.053656,,,0,0
1286,,Boddington Cr opp Broad Pl,-35.389199,149.056659,,,0,0
1287,,Boddington Cr after McLeod Pl,-35.390316,149.053797,,,0,0
1288,,Boddington Cr before Broad Pl,-35.389395,149.057158,,,0,0
1289,,O'Halloran Cct opp Boddington Cr,-35.390376,149.059036,,,0,0
1290,,O'Halloran Cct before Boddington Cr,-35.390364,149.058859,,,0,0
1291,,O'Halloran Cct after 2nd Springbett St,-35.392912,149.058194,,,0,0
1292,,O'Halloran Cct before 2nd McKillop Cct,-35.393119,149.058008,,,0,0
1293,,O'Halloran Cct before 1st Snodgrass Cr,-35.395622,149.059255,,,0,0
1294,,O'Halloran Cct opp 2nd Snodgrass Cr,-35.395814,149.059279,,,0,0
1295,,O'Halloran Cct before Vansittart Cr,-35.39579,149.062886,,,0,0
1296,,O'Halloran Cct after Vansittart Cr,-35.395919,149.062892,,,0,0
1297,,O'Halloran Cct before Ashby Cct,-35.394099,149.065924,,,0,0
1298,,O'Halloran Cct opp Ashby Cct,-35.393972,149.065792,,,0,0
1299,,O'Halloran Cct opp Namadgi School,-35.393073,149.067676,,,0,0
13,,Tuggeranong Interchange Arrivals,-35.414955,149.06608,,https://www.transport.act.gov.au/__data/assets/pdf_file/0013/1244200/TC_station_tuggeranong.pdf,0,0
1300,,Namadgi School O'Halloran Cct,-35.392579,149.068207,,,0,0
1301,,Summerland Cct after Vanzetti Cr,-35.391096,149.071581,,,0,0
1302,,Summerland Cct before 1st Kingsmill St,-35.390979,149.071495,,,0,0
1303,,Summerland Cct before 2nd Kingsmill St,-35.390028,149.073554,,,0,0
1304,,Summerland Cct after Livingston Av,-35.390173,149.073483,,,0,0
1319,,Wheeler Cr before Wanniassa HS,-35.394195,149.084369,,,0,0
1320,,St Anthonys PS Wheeler Cr,-35.394895,149.080012,,,0,0
1321,,Wheeler Cr after Wanniassa HS,-35.394279,149.08497,,,0,0
1322,,Wheeler Cr opp St Anthonys PS,-35.394982,149.079947,,,0,0
1323,,Fincham Cr after Morrissey St,-35.39616,149.078911,,,0,0
1324,,Fincham Cr after Wheeler Cr,-35.3963,149.079126,,,0,0
1325,,Fincham Cr before Stutt St,-35.398613,149.080301,,,0,0
1326,,Fincham Cr after 1st DeGraves Cr,-35.398902,149.080518,,,0,0
1327,,Forlonge St after Fincham Cr,-35.401054,149.081262,,,0,0
1328,,Forlonge St before Gair Pl,-35.401413,149.080926,,,0,0
1335,,Sternberg Cr opp Houston St,-35.402386,149.09281,,,0,0
1336,,Sternberg Cr opp Whiteman Cr,-35.4012,149.094982,,,0,0
1337,,Sternberg Cr before Houston St,-35.40235,149.092721,,,0,0
1338,,Sternberg Cr after Whiteman St,-35.401034,149.095201,,,0,0
1339,,Sternberg Cr after Langdon Av,-35.401439,149.098251,,,0,0
1340,,Sternberg Cr after Comrie St,-35.401696,149.098671,,,0,0
1341,,Drakeford Dr after Boddington Cr,-35.377343,149.056195,,,0,0
1342,,Drakeford Dr before Marconi Cr,-35.377347,149.056592,,,0,0
1343,,Marconi Cr opp Kambah Village,-35.378927,149.057634,,,0,0
1344,,Kambah Village Marconi Cr,-35.379136,149.057769,,,0,0
1345,,Marconi Cr before 2nd Harrington Cct,-35.377833,149.060636,,,0,0
1346,,Marconi Cr after Wyselaskie Cct,-35.378267,149.06011,,,0,0
1347,,Marconi Cr opp Taylor PS,-35.377614,149.064032,,,0,0
1348,,Taylor PS Marconi Cr,-35.377741,149.06406,,,0,0
1349,,Marconi Cr after 2nd Lascelles Cct,-35.378684,149.065348,,,0,0
1350,,Marconi Cr after Inkster St,-35.378728,149.065491,,,0,0
1351,,Marconi Cr after 1st Lascelles Cct,-35.381701,149.065314,,,0,0
1352,,Marconi Cr after Hutchison Cr,-35.381402,149.065583,,,0,0
1353,,Summerland Cct before Hutchison Cr,-35.383372,149.06747,,,0,0
1354,,Summerland Cct opp Hutchison Cr,-35.383463,149.067486,,,0,0
1355,,Summerland Cct before Mannheim St,-35.384914,149.070892,,,0,0
1356,,Summerland Cct before 1st Gallagher St,-35.38502,149.071134,,,0,0
1357,,Summerland Cct after 2nd Lee-Steere Cr,-35.387624,149.075039,,,0,0
1358,,Summerland Cct opp 1st Lee-Steere Cr,-35.387515,149.074926,,,0,0
1359,,Langdon Av after Dyer Pl,-35.392409,149.089645,,,0,0
1360,,Langdon Av after Macbain St,-35.392319,149.089323,,,0,0
1361,,Langdon Av before Carr Cr,-35.392568,149.093016,,,0,0
1362,,Langdon Av before Billson Pl,-35.392174,149.093685,,,0,0
1363,,Wanniassa Hills PS Langdon Av,-35.392151,149.095783,,,0,0
1364,,Langdon Av opp Wanniassa Hills PS,-35.392879,149.09656,,,0,0
1365,,Langdon Av after Gaunson Cr,-35.396342,149.096387,,,0,0
1366,,Langdon Av after Kirkton St,-35.396096,149.096231,,,0,0
1367,,Langdon Av before 2nd Brunton St,-35.397873,149.097417,,,0,0
1368,,Langdon Av before Longmore Cr,-35.397754,149.097416,,,0,0
1369,,Langdon Av before Embling St,-35.40037,149.097398,,,0,0
1370,,Langdon Av before Bussau Cl,-35.400017,149.097735,,,0,0
1371,,Drakeford Dr after Mortimer Lewis Dr,-35.402577,149.074423,,,0,0
1372,,Drakeford Dr before Taverner St,-35.401228,149.074572,,,0,0
1373,,Drakeford Dr after Taverner St,-35.408028,149.073539,,,0,0
1374,,Drakeford Dr after Soward Way,-35.408348,149.073076,,,0,0
1375,,Athllon Dr before Reed St,-35.418158,149.064405,,,0,0
1376,,Hindmarsh Dr after Ball St,-35.348742,149.08783,,,0,0
1400,,Newman-Morris Cct opp 2nd Connibere Cr,-35.407481,149.0757,,,0,0
1401,,Newman-Morris Cct before 1st Connibere Cr,-35.407218,149.07569,,,0,0
1402,,Newman-Morris Cct before 1st Singleton Cr,-35.410852,149.075058,,,0,0
1403,,77 Newman-Morris Cct,-35.410988,149.075168,,,0,0
1404,,Newman-Morris Cct after 1st Collocott Cr,-35.413455,149.076071,,,0,0
1405,,Newman-Morris Cct opp 2nd Collocott Cr,-35.413535,149.076332,,,0,0
1406,,Newman-Morris Cct before 2nd Cuthbertson Cr,-35.412838,149.079376,,,0,0
1407,,Newman-Morris Cct before 2nd Maconochie Cr,-35.413294,149.078626,,,0,0
1408,,Lakeside Leisure Centre Anketell St,-35.41215,149.063186,,,0,0
1409,,Learmonth Dr after Vansittart Cr,-35.401969,149.060866,,,0,0
1410,,Learmonth Dr opp Vansittart Cr,-35.402084,149.060775,,,0,0
1411,,Vansittart Cr after 1st Stieglitz Cct,-35.400156,149.062603,,,0,0
1412,,Vansittart Cr after 1st Ragless Cct,-35.400089,149.062464,,,0,0
1413,,Learmonth Dr after Athllon Dr,-35.403181,149.063357,,,0,0
1414,,Learmonth Dr before Athllon Dr,-35.403084,149.06352,,,0,0
1415,,Vansittart Cr opp Pinkerton Cct,-35.397225,149.064054,,,0,0
1416,,Vansittart Cr before Pinkerton Cct,-35.397462,149.064247,,,0,0
1417,,Tuggeranong Pkwy after Sulwood Dr,-35.373045,149.056882,,,0,0
1418,,Tuggeranong Pkwy before Sulwood Dr,-35.372604,149.057409,,,0,0
1435,,Clive Steele Av before 2nd Priddle St,-35.410718,149.100686,,,0,0
1436,,Clive Steele Av opp 1st Priddle St,-35.410892,149.100719,,,0,0
1437,,Clive Steele Av opp 2nd Brain St,-35.41236,149.100027,,,0,0
1438,,Clive Steele Av before 2nd Brain St,-35.412885,149.099366,,,0,0
1439,,Clive Steele Av before 2nd Fraenkel St,-35.414112,149.097043,,,0,0
1440,,Clive Steele Av before 2nd Coode St,-35.414441,149.09674,,,0,0
1441,,Monash Shops Cockcroft Av,-35.417059,149.098237,,,0,0
1442,,Cockcroft Av opp Monash Shops,-35.416742,149.098198,,,0,0
1443,,Cockcroft Av before Kneeshaw St,-35.419885,149.097304,,,0,0
1444,,Goodwin Aged Care Cockcroft Av,-35.419751,149.097043,,,0,0
1445,,Charleston St after 2nd William Hudson Cr,-35.416281,149.079178,,,0,0
1446,,Charleston St after Blakey Cl,-35.416263,149.07936,,,0,0
1447,,Charleston St before 1st William Hudson Cr,-35.418192,149.082438,,,0,0
1448,,Charleston St after Hallstrom Cct,-35.41809,149.082409,,,0,0
1449,,Clive Steele Av before 1st Balsillie Cr,-35.416677,149.086218,,,0,0
1450,,Clive Steele Av opp 2nd Balsillie Cr,-35.41661,149.086533,,,0,0
1451,,Clive Steele Av before 2nd Balsillie Cr,-35.416239,149.088005,,,0,0
1452,,Clive Steele Av before Harkness St,-35.416298,149.088358,,,0,0
1453,,Monash PS Corlette Cr,-35.41534,149.089569,,,0,0
1454,,Corlette Cr after Hebblewhite St,-35.414164,149.087577,,,0,0
1456,,Corlette Cr opp Monash PS,-35.414787,149.088975,,,0,0
1457,,Corlette Cr opp Hebblewhite St,-35.414229,149.087272,,,0,0
1458,,Hebblewhite St after Forwood St,-35.411989,149.087664,,,0,0
1459,,Hebblewhite St before Burnell Pl,-35.412096,149.087407,,,0,0
1460,,Harricks Cr after 1st Michell St,-35.410713,149.091178,,,0,0
1461,,Harricks Cr after 1st Michell St,-35.410765,149.090883,,,0,0
1462,,Harricks Cr after 1st Cracknell St,-35.408807,149.092679,,,0,0
1463,,Harricks Cr opp 2nd Cracknell St,-35.408936,149.092449,,,0,0
1466,,Wheeler Cr after Sternberg Cr,-35.402337,149.091783,,,0,0
1467,,Wheeler Cr before Hanna St,-35.400526,149.089227,,,0,0
1468,,Wheeler Cr before Sternberg Cr,-35.402094,149.091797,,,0,0
1469,,Wheeler Cr opp Hanna St,-35.400409,149.089292,,,0,0
1470,,Wheeler Cr after Guthridge Cr,-35.398153,149.088372,,,0,0
1471,,Wheeler Cr after Kirkton St,-35.398117,149.088481,,,0,0
1472,,Wanniassa HS Wheeler Cr,-35.394803,149.086693,,,0,0
1473,,Wheeler Cr opp Wanniassa HS,-35.394653,149.086594,,,0,0
1486,,Clift Cr after Ashley Dr,-35.424738,149.104019,,,0,0
1487,,Clift Cr before Ashley Dr,-35.424897,149.104043,,,0,0
1488,,29 Clift Cr,-35.42628,149.107056,,,0,0
1489,,Clift Cr opp 29,-35.426372,149.107042,,,0,0
1490,,Clift Cr before 2nd Kiddle Cr,-35.427562,149.109589,,,0,0
1491,,Clift Cr opp 1st Kiddle Cr,-35.427624,149.10978,,,0,0
1492,,Clift Cr before Heagney Cr,-35.426282,149.112288,,,0,0
1493,,Clift Cr opp Heagney Cr,-35.426308,149.112478,,,0,0
1494,,Heagney Cr before Beattie Cr,-35.425383,149.114077,,,0,0
1495,,Heagney Cr before 2nd Mclorinan St,-35.425238,149.114285,,,0,0
1496,,Beattie Cr before 2nd McBurney Cr,-35.422762,149.112019,,,0,0
1497,,Beattie Cr before Swanton St,-35.423058,149.112178,,,0,0
1498,,Beattie Cr after Hemmings Cr,-35.420984,149.113621,,,0,0
1499,,Beattie Cr opp Hemmings Cr,-35.420965,149.113865,,,0,0
1500,,Beattie Cr after Goldstein Cr,-35.418313,149.115569,,,0,0
1501,,Beattie Cr after 2nd Longman St,-35.418601,149.115219,,,0,0
1504,,Gowrie Shops Castleton Cr,-35.41387,149.109327,,,0,0
1505,,Castleton Cr opp Gowrie Shops,-35.414013,149.109397,,,0,0
1506,,Castleton Cr after 2nd Wheatley St,-35.412066,149.105807,,,0,0
1507,,Castleton Cr opp 1st Wheatley St,-35.411981,149.105556,,,0,0
1508,,Castleton Cr before Easterbrook Pl,-35.409963,149.104886,,,0,0
1509,,Castleton Cr opp Easterbrook Pl,-35.41009,149.104967,,,0,0
1510,,Castleton Cr after Farcomb Pl,-35.407349,149.106466,,,0,0
1511,,Castleton Cr after Middleton Cct,-35.407182,149.106505,,,0,0
1512,,Castleton Cr after Peeler Pl,-35.406056,149.111056,,,0,0
1513,,Castleton Cr before Wray Pl,-35.406197,149.111205,,,0,0
1529,,Bugden Av after Mactier Pl,-35.414471,149.104533,,,0,0
1530,,Bugden Av opp Denehy Pl,-35.414685,149.104606,,,0,0
1531,,Bugden Av after 1st Dalziel St,-35.417136,149.104855,,,0,0
1532,,Bugden Av after 1st Stacy St,-35.416935,149.104787,,,0,0
1533,,Bugden Av after 2nd Dalziel St,-35.418079,149.107385,,,0,0
1534,,Bugden Av before 1st Ingram St,-35.417955,149.107856,,,0,0
1535,,Bugden Av after Beardsmore Pl,-35.415811,149.10984,,,0,0
1536,,Bugden Av before 2nd Galleghan Cct,-35.415728,149.110049,,,0,0
1537,,Norriss St after 1st Woodburn St,-35.416852,149.117772,,,0,0
1538,,Norriss St opp 2nd Woodburn St,-35.416912,149.117961,,,0,0
1539,,Norriss St opp Caroline Chisholm Senior School,-35.416431,149.121032,,,0,0
1540,,Caroline Chisholm Senior School Norriss St,-35.416575,149.120836,,,0,0
1542,,Hambidge Cr before Proctor St,-35.416041,149.130189,,,0,0
1543,,Hambidge Cr opp 64,-35.418268,149.127212,,,0,0
1544,,64 Hambidge Cr,-35.418097,149.127335,,,0,0
1545,,Hambidge Cr after 1st Alice Jackson Cr,-35.416602,149.129855,,,0,0
1546,,Baskerville St after Hambidge Cr,-35.41953,149.125425,,,0,0
1547,,Baskerville St before Hambidge Cr,-35.419584,149.125331,,,0,0
1548,,Baskerville St before 1st Laughton St,-35.422051,149.12439,,,0,0
1549,,Baskerville St opp 2nd Laughton St,-35.421961,149.124524,,,0,0
1550,,Heagney Cr after Alston St,-35.424281,149.123477,,,0,0
1551,,Heagney Cr after 1st Muntz St,-35.424407,149.123683,,,0,0
1552,,Heagney Cr after Goldstein Cr,-35.424252,149.121332,,,0,0
1553,,Heagney Cr before 1st Moffin St,-35.424343,149.121259,,,0,0
1554,,Heagney Cr after 2nd Mofflin St,-35.424314,149.117442,,,0,0
1555,,Heagney Cr opp 2nd McLorinan St,-35.4242,149.117209,,,0,0
1556,,Richardson Shops Clift Cr,-35.427259,149.115792,,,0,0
1557,,Clift Cr opp Meeson St,-35.428668,149.118497,,,0,0
1558,,Clift Cr before Meeson St,-35.428604,149.11858,,,0,0
1559,,Clift Cr opp Richardson Shops,-35.427334,149.116004,,,0,0
1560,,Louisa Lawson Cr before Gellatly Pl,-35.417691,149.137217,,,0,0
1561,,Louisa Lawson Cr after 1st May Maxwell Cr,-35.4176,149.13726,,,0,0
1562,,Louisa Lawson Cr after Fenston Pl,-35.416144,149.139438,,,0,0
1563,,Louisa Lawson Cr opp Fenston Pl,-35.416088,149.139358,,,0,0
1564,,Louisa Lawson Cr before 1st Aronson Cr,-35.412316,149.137509,,,0,0
1565,,Louisa Lawson Cr after 2nd Willoughby Cr,-35.412259,149.1374,,,0,0
1566,,Louisa Lawson Cr before 2nd Willoughby Cr,-35.412511,149.135275,,,0,0
1567,,Louisa Lawson Cr after 1st Aronson Cr,-35.412578,149.135104,,,0,0
1568,,Louisa Lawson Cr before 2nd Aronson Cr,-35.413875,149.133002,,,0,0
1569,,Louisa Lawson Cr before Litchfield Pl,-35.413853,149.132904,,,0,0
1576,,Duggan St after Outtrim Av,-35.436524,149.097743,,,0,0
1577,,Duggan St before Outtrim Av,-35.436485,149.097607,,,0,0
1596,,Newman-Morris Cct before Taverner St,-35.404247,149.077479,,,0,0
1597,,Newman-Morris Cct after Taverner St,-35.404262,149.077609,,,0,0
1599,,McBryde Cr opp Trinity Christian School,-35.407416,149.087085,,,0,0
1600,,Trinity Christian School McBryde Cr,-35.407527,149.086841,,,0,0
1601,,Ashley Dr before Michaelis Ct,-35.403464,149.101639,,,0,0
1602,,Ashley Dr before Lansell Cct,-35.403512,149.101825,,,0,0
1606,,Calwell HS Casey Cr,-35.441239,149.116884,,,0,0
1608,,St Clares College McMillan Cr SSO,-35.323219,149.146183,,,0,0
1609,,St Edmunds College McMillan Cr SSO,-35.323215,149.146033,,,0,0
1615,,Holy Family PS Castleton Cr,-35.410953,149.115701,,,0,0
1630,,Laurens St before McBryde Cr,-35.406727,149.08429,,,0,0
1631,,Laurens St after McBryde Cr,-35.40687,149.084323,,,0,0
1637,,Weston Creek Terminus Hindmarsh Dr,-35.343932,149.027668,,,0,0
1638,,Forsythe St before Pockett Av,-35.47449,149.094704,,,0,0
1639,,Forsythe St after Pockett Av,-35.474525,149.094926,,,0,0
1641,,Lanyon Marketplace Terminus,-35.45616,149.092291,,,0,0
1642,,Barraclough Cr opp Goodwin Village,-35.416332,149.096259,,,0,0
1649,,Lawrence Wackett Cr before Tharwa Dr,-35.442646,149.122636,,,0,0
1650,,Lawrence Wackett Cr after Scantlebury Cr,-35.442652,149.122792,,,0,0
1651,,Goodwin Village Barraclough Cr,-35.41628,149.095901,,,0,0
1660,,Barr Smith Av after 1st Derrington Cr,-35.432228,149.07665,,,0,0
1661,,Barr Smith Av before 2nd Derrington Cr,-35.430812,149.074816,,,0,0
1666,,Gordon PS Knoke Av,-35.458172,149.086239,,,0,0
1667,,Duggan St before Downard St,-35.438992,149.098285,,,0,0
1668,,Duggan St before Pennington Cr,-35.439074,149.0982,,,0,0
1669,,Clive Steele Av opp 187,-35.41987,149.085653,,,0,0
1670,,189 Clive Steele Av,-35.419968,149.085854,,,0,0
1671,,Clive Steele Av opp Falconer St,-35.421359,149.088592,,,0,0
1672,,Clive Steele Av after Falconer St,-35.421377,149.08875,,,0,0
1675,,Forsythe St after Bellchambers Cr,-35.475141,149.097619,,,0,0
1676,,Forsythe St after 1st Smeaton Cct,-35.474882,149.097154,,,0,0
1677,,Forsythe St after 2nd Olive Pink Cr,-35.476552,149.099793,,,0,0
1678,,Forsythe St after 2nd Smeaton Cct,-35.476443,149.099815,,,0,0
1679,,Forsythe St after 2nd Alison Ashby Cr,-35.475241,149.101068,,,0,0
1680,,73 Forsythe St,-35.47499,149.100909,,,0,0
1681,,Paperbark St after Galbraith Cl,-35.472399,149.103205,,,0,0
1682,,Paperbark St after Troughton St,-35.472405,149.103104,,,0,0
1683,,Paperbark St before 2nd Kettlewell Cr,-35.469199,149.104669,,,0,0
1684,,Paperbark St opp 1st Kettlewell Cr,-35.469855,149.104424,,,0,0
1685,,Paperbark St after 1st Kettlewell Cr,-35.468349,149.105689,,,0,0
1686,,Paperbark St before Jane Sutherland St,-35.468242,149.105985,,,0,0
1687,,Templestowe Av after Eaglemont Rt,-35.463891,149.111349,,,0,0
1688,,Templestowe Av opp Eaglemont Rt,-35.46383,149.111208,,,0,0
1689,,Templestowe Av after 2nd Barringer St,-35.462639,149.109789,,,0,0
1690,,Templestowe Av opp 2nd Barringer St,-35.462751,149.109494,,,0,0
1691,,Templestowe Av after 1st Barringer St,-35.462497,149.107923,,,0,0
1692,,Templestowe Av opp 2nd Barringer St,-35.462229,149.107194,,,0,0
1696,,Barr Smith Av opp 2nd Derrington Cr,-35.43218,149.076794,,,0,0
1697,,Barr Smith Av opp 1st Derrington Cr,-35.430952,149.075074,,,0,0
1698,,Bugden Av opp Holy Family PS,-35.410042,149.118399,,,0,0
1699,,Holy Family PS Bugden Av,-35.410011,149.118277,,,0,0
1708,,City Interchange Plt 7 Arrivals,-35.277895,149.130764,,https://www.transport.act.gov.au/__data/assets/pdf_file/0008/1244195/TC_station_city.pdf,0,0
1721,,City Interchange Plt 11 Arrivals,-35.279332,149.130421,,https://www.transport.act.gov.au/__data/assets/pdf_file/0008/1244195/TC_station_city.pdf,0,0
1723,,City Interchange Arrivals,-35.278552,149.130596,,https://www.transport.act.gov.au/__data/assets/pdf_file/0008/1244195/TC_station_city.pdf,0,0
1726,,Randwick Rd after Flemington Rd,-35.22794,149.143062,,,0,0
1729,,Anthony Rolfe Av after Waghorn St,-35.18502,149.154597,,,0,0
1734,,Canberra Hospital Hospital Rd,-35.346021,149.101947,,,0,0
1736,,UC Public Hospital Thirriwirri St,-35.233663,149.081939,,,0,0
1737,,Thirriwirri St opp UC Public Hospital,-35.233762,149.081085,,,0,0
1738,,Pantowora St before Allawoona St,-35.234349,149.086534,,,0,0
1739,,Pantowora St after Allawoona St,-35.234327,149.08627,,,0,0
1740,,Drakeford Dr after Athllon Dr,-35.420123,149.075921,,,0,0
1741,,Drakeford Dr before Isabella Dr,-35.420965,149.076646,,,0,0
1766,,Barrier St before Ipswich St,-35.326234,149.167513,,,0,0
1768,,Barrier St opp Isa St,-35.32769,149.170232,,,0,0
1770,,Barrier St before Pirie St,-35.326447,149.168193,,,0,0
1771,,Barrier St before Isa St,-35.327768,149.170613,,,0,0
1772,,Newcastle St after Isa St,-35.325413,149.172591,,,0,0
1776,,Battye St opp CIT Bruce,-35.246471,149.096966,,,0,0
1777,,Langton Cr before King Edward Tce,-35.298929,149.127197,,,0,0
1778,,Langton Cr after Newlands St,-35.299451,149.127409,,,0,0
1790,,Anthony Rolfe Av after Gundaroo Rd,-35.18271,149.130429,,,0,0
1791,,Summerland Cct after Mannheim St,-35.385383,149.073318,,,0,0
1792,,Summerland Cct after Mason St,-35.385438,149.073249,,,0,0
1801,,Gungahlin Place Plt 3 Arrivals,-35.18535,149.13516,,,0,0
1802,,North Weston Park & Ride,-35.32168,149.058296,,,0,0
1803,,Tuggeranong Interchange Plt 3,-35.414656,149.065635,,https://www.transport.act.gov.au/__data/assets/pdf_file/0013/1244200/TC_station_tuggeranong.pdf,0,0
1804,,Tuggeranong Interchange Plt 4,-35.414427,149.065463,,https://www.transport.act.gov.au/__data/assets/pdf_file/0013/1244200/TC_station_tuggeranong.pdf,0,0
1807,,Tuggeranong Interchange Plt 7,-35.414616,149.065388,,https://www.transport.act.gov.au/__data/assets/pdf_file/0013/1244200/TC_station_tuggeranong.pdf,0,0
1808,,Tuggeranong Interchange Plt 8,-35.414923,149.065626,,https://www.transport.act.gov.au/__data/assets/pdf_file/0013/1244200/TC_station_tuggeranong.pdf,0,0
1809,,Opp North Weston Park & Ride,-35.322591,149.057622,,,0,0
1810,,Anketell St opp Lakeside Leisure Centre,-35.412279,149.063313,,,0,0
1811,,Theodore Terminus Chippindall Cct,-35.453058,149.118563,,,0,0
1812,,Lanyon Marketplace Terminus,-35.456354,149.092463,,,0,0
1815,,Barr Smith Av opp Coombe St,-35.429014,149.074577,,,0,0
1816,,Barr Smith Av after Coombe St,-35.428804,149.074735,,,0,0
1821,,City West Marcus Clarke St,-35.279102,149.125561,,,0,0
1825,,IKEA Majura Rd,-35.296085,149.187705,,,0,0
1836,,Ashley Dr before Erindale Dr,-35.407621,149.10241,,,0,0
1837,,Ashley Dr after Erindale Dr,-35.40745,149.102719,,,0,0
1838,,Ashley Dr opp Bugden Av,-35.413342,149.102358,,,0,0
1839,,Ashley Dr before Bugden Av,-35.41242,149.102769,,,0,0
1840,,Ashley Dr before Isabella Dr,-35.424109,149.103232,,,0,0
1841,,Ashley Dr after Isabella Dr,-35.42265,149.10351,,,0,0
1903,,Callaway Cr after 2nd Myles Connell Cr,-35.461905,149.082228,,,0,0
1904,,Knoke Av after 1st Mina Wylie Cr,-35.463902,149.083174,,,0,0
1905,,Wanniassa Shops Langdon Av,-35.391052,149.086784,,,0,0
1906,,Langdon Av opp Wanniassa Shops,-35.391088,149.086937,,,0,0
1907,,Carruthers St before Theodore St,-35.331821,149.079279,,,0,0
1908,,Wanniassa Park & Ride,-35.389589,149.084686,,,0,0
1909,,Wanniassa Park & Ride,-35.390179,149.083559,,,0,0
2,,Athllon Dr after Learmonth Dr,-35.402611,149.064747,,,0,0
2002,,Launceston St before Furzer St,-35.3408,149.084461,,,0,0
2003,,Theodore St before 1st James St,-35.335696,149.081259,,,0,0
2004,,Theodore St before 2nd James St,-35.333497,149.07975,,,0,0
2005,,Carruthers St opp Curtin PS,-35.33051,149.077728,,,0,0
2006,,Carruthers St after 2nd McCormack St,-35.327662,149.075588,,,0,0
2007,,Carruthers St after Jennings St,-35.324566,149.075576,,,0,0
2008,,Throssell St after Kennerley St,-35.322986,149.074811,,,0,0
2009,,Throssell St after Jennings St,-35.32116,149.074925,,,0,0
2010,,Throssell St opp Prendergast St,-35.319388,149.077039,,,0,0
2011,,Dunstan St before McCulloch St,-35.318747,149.080242,,,0,0
2012,,McCulloch St before 2nd Morgan Cr,-35.321608,149.081954,,,0,0
2013,,McCulloch St after 2nd Morgan Cr,-35.323188,149.082576,,,0,0
2014,,Carruthers St opp Curtin Shops,-35.324606,149.082777,,,0,0
2015,,Carruthers St after Allan St,-35.325514,149.085024,,,0,0
2016,,Carruthers St before Groom St,-35.326917,149.090011,,,0,0
2017,,Carruthers St after Yarra Glen,-35.325826,149.085235,,,0,0
2018,,Curtin Shops Carruthers St,-35.324994,149.083001,,,0,0
2019,,McCulloch St before Propsting St,-35.323287,149.0824,,,0,0
2020,,McCulloch St after Reynolds St,-35.320926,149.081591,,,0,0
2021,,Dunstan St after McCulloch St,-35.318862,149.080228,,,0,0
2022,,Throssell St after Prendergast St,-35.319479,149.076987,,,0,0
2023,,Throssell St after 2nd Robertson St,-35.321521,149.074953,,,0,0
2024,,Throssell St after Storey St,-35.323041,149.074948,,,0,0
2025,,Carruthers St opp Jennings St,-35.324712,149.075654,,,0,0
2026,,Carruthers St after Nelson Pl,-35.327788,149.075785,,,0,0
2027,,Carruthers St before Curtin PS,-35.330288,149.077684,,,0,0
2028,,Theodore St opp 1st James St,-35.333686,149.079877,,,0,0
2029,,Theodore St before 2nd Holman St,-35.335554,149.081246,,,0,0
2030,,Marrawah St after Theodore St,-35.338597,149.082031,,,0,0
2031,,Launceston St after Irving St,-35.340665,149.084709,,,0,0
2032,,Melrose Dr opp Phillip Pool,-35.339084,149.082813,,,0,0
2033,,Melrose Dr before Launceston St,-35.339215,149.083122,,,0,0
2034,,Beasley St opp Torrens PS,-35.372251,149.089791,,,0,0
2035,,Torrens PS Beasley St,-35.371876,149.090661,,,0,0
2036,,Beasley St after Lambrigg St,-35.371948,149.095472,,,0,0
2037,,Beasley St after Athllon Dr,-35.371865,149.095493,,,0,0
2038,,Badimara St after Yambina St,-35.358505,149.060114,,,0,0
2039,,Beasley St before Wilkins St,-35.371718,149.098123,,,0,0
2040,,Wilkins St after Hoadley St,-35.370606,149.099632,,,0,0
2041,,Wilkins St after Beasley St,-35.370504,149.099423,,,0,0
2042,,Heard St after Wilkins St,-35.368165,149.097688,,,0,0
2043,,Heard St before Wilkins St,-35.368034,149.097572,,,0,0
2044,,Heard St opp Southlands Shops,-35.365578,149.095423,,,0,0
2045,,Southlands Shops Heard St,-35.365471,149.095324,,,0,0
2050,,Pearce Shops Macfarland Cr,-35.362987,149.081353,,,0,0
2052,,Nemarang Cr after Larakia St,-35.351855,149.063909,,,0,0
2053,,Hodgson Cr at Murphy Cr,-35.366274,149.082531,,,0,0
2054,,Hodgson Cr after Brinsmead St,-35.366216,149.082327,,,0,0
2055,,Macfarland Cr before 2nd Threlfall St,-35.358229,149.075663,,,0,0
2056,,Macfarland Cr after Wilsmore Cr,-35.358116,149.075496,,,0,0
2057,,Macfarland Cr after Collings St,-35.361305,149.077995,,,0,0
2058,,Macfarland Cr before Sheehan St,-35.361502,149.078048,,,0,0
2059,,Macfarland Cr after Waldock St,-35.355623,149.075247,,,0,0
2060,,Macfarland Cr opp Waldock St,-35.355735,149.075326,,,0,0
2061,,Chifley Shops Eggleston Cr,-35.35253,149.075535,,,0,0
2062,,Eggleston Cr opp Chifley Shops,-35.35215,149.075305,,,0,0
2063,,Eggleston Cr after McDonald St,-35.349594,149.076139,,,0,0
2064,,Eggleston Cr after Plunkett St,-35.349676,149.076187,,,0,0
2065,,Launceston St opp Dennes Pl,-35.346677,149.074132,,,0,0
2066,,Launceston St after Dennes Pl,-35.346726,149.074034,,,0,0
2067,,Launceston St before 2nd Tarraleah Cr,-35.343412,149.074526,,,0,0
2068,,Launceston St after Port Arthur St,-35.342863,149.07467,,,0,0
2069,,Lyons Shops Launceston St,-35.339708,149.076986,,,0,0
2070,,Launceston St opp Lyons Shops,-35.340408,149.076472,,,0,0
2071,,Launceston St after Glenorchy St,-35.339541,149.079974,,,0,0
2072,,Launceston St after Burnie St,-35.339601,149.07984,,,0,0
2073,,Beasley St opp Gepp Pl,-35.368643,149.084696,,,0,0
2074,,Torrens Shops Beasley St,-35.373089,149.086631,,,0,0
2075,,Beasley St before Hawker St,-35.370811,149.085237,,,0,0
2076,,Beasley St before Wyatt St,-35.370744,149.085364,,,0,0
2077,,Beasley St before Gepp Pl,-35.368483,149.084474,,,0,0
2090,,Badimara St after 1st Kalgoorlie Cr,-35.358631,149.060178,,,0,0
2091,,Canberra College Launceston St,-35.341081,149.088575,,,0,0
2092,,Launceston St opp Canberra College,-35.340313,149.090339,,,0,0
2093,,Yamba Dr opp St Peter & St Pauls PS,-35.340547,149.093514,,,0,0
2094,,Yamba Dr after Kitchener St,-35.342457,149.096397,,,0,0
2095,,Yamba Dr opp Canberra Hospital,-35.3467,149.09958,,,0,0
2096,,Tyagarah St before Culgoa Cct,-35.350118,149.106441,,,0,0
2097,,Culgoa Cct after 2nd Jindalee Cr,-35.352203,149.104392,,,0,0
2098,,Culgoa Cct before Bulwarra Cl,-35.352339,149.104555,,,0,0
2099,,Culgoa Cct after 1st Jindalee Cr,-35.35438,149.104996,,,0,0
2100,,Culgoa Cct opp 2nd Jindalee Cr,-35.354306,149.105101,,,0,0
2101,,Kareelah Vsta after Mialli Pl,-35.35546,149.107267,,,0,0
2102,,Kareelah Vsta after Gerogery Pl,-35.355485,149.107132,,,0,0
2103,,Kareelah Vsta before Numeralla St,-35.357431,149.107688,,,0,0
2104,,Kareelah Vsta after Taronga Pl,-35.35778,149.108376,,,0,0
2105,,Ngunawal Dr before Kareelah Vsta,-35.359443,149.109038,,,0,0
2106,,Ngunawal Dr after Kareelah Vsta,-35.359623,149.109087,,,0,0
2107,,Bromby St before Cobbadah St,-35.36213,149.106953,,,0,0
2108,,Bromby St opp Cobbadah St,-35.36208,149.107125,,,0,0
2109,,Bromby St after William Wilkins Cr,-35.363601,149.107772,,,0,0
2110,,Bromby St after Julia Flynn Av,-35.363641,149.107655,,,0,0
2111,,Julia Flynn Av after Adkinson Cl,-35.364206,149.110548,,,0,0
2112,,St Judes PS Mulley St,-35.335532,149.051091,,,0,0
2113,,Mulley St opp St Judes PS,-35.335615,149.051045,,,0,0
2114,,Heysen St opp Gruner St,-35.331083,149.058611,,,0,0
2115,,Heysen St before Gruner St,-35.3313,149.058791,,,0,0
2116,,Heysen St before Bellette St,-35.333356,149.060901,,,0,0
2117,,Heysen St after Bunny St,-35.333324,149.060689,,,0,0
2118,,Dixon Dr after Twynam St,-35.329561,149.046439,,,0,0
2119,,Dixon Dr opp Guy Pl,-35.329473,149.046258,,,0,0
2120,,Dixon Dr opp Hyndes Cr,-35.329679,149.04385,,,0,0
2121,,Dixon Dr after Hyndes Cr,-35.329814,149.043864,,,0,0
2122,,Dixon Dr opp Warragamba Av,-35.330037,149.041986,,,0,0
2123,,Dixon Dr after Warragamba Av,-35.329947,149.041878,,,0,0
2124,,Warragamba Av before Dixon Dr,-35.330175,149.038159,,,0,0
2125,,Warragamba Av after Dixon Dr,-35.330281,149.03817,,,0,0
2128,,Burrinjuck Cr opp Duffy PS,-35.334199,149.032279,,,0,0
2129,,Duffy PS Burrinjuck Cr,-35.334854,149.031907,,,0,0
2130,,Burrinjuck Cr before Serpentine St,-35.333468,149.034789,,,0,0
2131,,Burrinjuck Cr before 2nd Blowering St,-35.333604,149.034653,,,0,0
2132,,Burrinjuck Cr after 1st Blowering St,-35.333022,149.037223,,,0,0
2133,,Duffy Shops Burrinjuck Cr,-35.336823,149.031757,,,0,0
2134,,Burrinjuck Cr opp Duffy Shops,-35.337046,149.031593,,,0,0
2135,,Renmark St after 1st Jemalong St,-35.338441,149.030275,,,0,0
2136,,Renmark St after Eungella St,-35.338454,149.030462,,,0,0
2137,,Eucumbene Dr opp 22,-35.341042,149.027533,,,0,0
2138,,22 Eucumbene Dr,-35.341193,149.027549,,,0,0
2139,,Hindmarsh Dr opp Weston Creek Terminus,-35.34382,149.027823,,,0,0
2140,,Hindmarsh Dr opp Darwinia Tce,-35.343831,149.030117,,,0,0
2141,,Wyangala St at Tullaroop St,-35.34252,149.032159,,,0,0
2142,,Wyangala St after 2nd Burdekin St,-35.341375,149.033087,,,0,0
2143,,Wyangala St opp 1st Burdekin St,-35.340785,149.033719,,,0,0
2144,,Hindmarsh Dr after Dixon Dr,-35.342053,149.042443,,,0,0
2145,,Hindmarsh Dr opp Dixon Dr,-35.342162,149.042575,,,0,0
2147,,Hindmarsh Dr before Darwinia Tce,-35.343913,149.030307,,,0,0
2148,,Darwinia Tce opp Kathner St,-35.346607,149.028714,,,0,0
2149,,Darwinia Tce after Kathner St,-35.346302,149.028606,,,0,0
2150,,Darwinia Tce after Angophora St,-35.34998,149.030099,,,0,0
2151,,Darwinia Tce after Rafferty St,-35.350173,149.030192,,,0,0
2152,,Darwinia Tce opp Rafferty St,-35.351417,149.03216,,,0,0
2153,,Darwinia Tce before Rafferty St,-35.351395,149.031963,,,0,0
2154,,Darwinia Tce after Casuarina St,-35.352323,149.034142,,,0,0
2155,,Darwinia Tce after Perry Dr,-35.352445,149.034245,,,0,0
2156,,Perry Dr before Rene St,-35.354717,149.034561,,,0,0
2157,,Perry Dr after 2nd Sidaway St,-35.354636,149.03446,,,0,0
2158,,Perry Dr before Musgrove St,-35.356882,149.036443,,,0,0
2159,,Perry Dr after Lipman St,-35.357012,149.036867,,,0,0
2160,,Perry Dr opp Chapman Shops,-35.356227,149.040111,,,0,0
2161,,Chapman Shops Perry Dr,-35.356077,149.040383,,,0,0
2162,,Perry Dr opp Chapman PS,-35.356886,149.042435,,,0,0
2163,,Chapman PS Perry Dr,-35.356825,149.042603,,,0,0
2164,,Perry Dr at Bertel Cr,-35.359509,149.04454,,,0,0
2165,,Perry Dr opp Bertel Cr,-35.359309,149.044375,,,0,0
2166,,Kalgoorlie Cr before Callide St,-35.360207,149.053153,,,0,0
2167,,Kalgoorlie Cr before Kapunda St,-35.360216,149.052935,,,0,0
2168,,Fisher Shops Kalgoorlie Cr,-35.36197,149.056644,,,0,0
2169,,Kalgoorlie Cr opp Fisher Shops,-35.362054,149.05648,,,0,0
2170,,Kalgoorlie Cr after Kambalda Cr,-35.362863,149.058952,,,0,0
2171,,Kalgoorlie Cr opp Kambalda Cr,-35.362777,149.058672,,,0,0
2172,,Kalgoorlie Cr before 2nd Jarrahdale St,-35.360351,149.060888,,,0,0
2173,,Kalgoorlie Cr after 1st Pandanus St,-35.36006,149.061206,,,0,0
2182,,Badimara St after Hindmarsh Dr,-35.349921,149.068161,,,0,0
2183,,Badimara St before Hindmarsh Dr,-35.349777,149.067994,,,0,0
2184,,McInnes St after Hindmarsh Dr,-35.345983,149.062788,,,0,0
2185,,McInnes St after 2nd Buvelot St,-35.345901,149.062983,,,0,0
2186,,McInnes St after 1st Chevalier St,-35.34394,149.061455,,,0,0
2187,,40 McInnes St,-35.343856,149.061492,,,0,0
2188,,McInnes St after 2nd Chevalier St,-35.343242,149.059143,,,0,0
2189,,McInnes St after 1st Buvelot St,-35.342631,149.058639,,,0,0
2190,,McInnes St opp Conder St,-35.340911,149.058409,,,0,0
2191,,McInnes St after Conder St,-35.340937,149.058201,,,0,0
2192,,McInnes St before Gritten St,-35.338539,149.059434,,,0,0
2193,,McInnes St before Ironside St,-35.338414,149.05953,,,0,0
2194,,Hilder St before Gritten St,-35.336872,149.05793,,,0,0
2195,,Hilder St opp McInnes St,-35.336791,149.057818,,,0,0
2196,,Hilder St after 1st Lycett St,-35.336748,149.056141,,,0,0
2197,,Hilder St after Gritten St,-35.336841,149.05565,,,0,0
2198,,Hilder St at McCubbin St,-35.335566,149.053869,,,0,0
2199,,Hilder St before Streeton Dr,-35.335595,149.053752,,,0,0
2200,,Namatjira Dr after Dillon Cl,-35.33927,149.054557,,,0,0
2201,,Namatjira Dr before Conder St,-35.340577,149.05659,,,0,0
2202,,Namatjira Dr after Conder St,-35.342274,149.057263,,,0,0
2203,,Parkinson St opp Backler Pl,-35.343276,149.055773,,,0,0
2204,,Parkinson St at Backler Pl,-35.343409,149.055764,,,0,0
2205,,Cooleman Court Interchange Plt 1,-35.342365,149.05347,,,0,0
2206,,Cooleman Court Interchange Plt 2,-35.342457,149.052865,,,0,0
2207,,Blackwood Tce opp Holder Shops,-35.336677,149.044672,,,0,0
2208,,Holder Shops Blackwood Tce,-35.336563,149.044607,,,0,0
2209,,Blackwood Tce after Tyers St,-35.336097,149.041154,,,0,0
2210,,Blackwood Tce opp Tyers St,-35.336054,149.040934,,,0,0
2212,,Heysen St opp Preston St,-35.330242,149.055251,,,0,0
2213,,Heysen St before Preston St,-35.330333,149.055247,,,0,0
2214,,Canberra Girls Grammar Senior School Melbourne Av,-35.318043,149.115331,,,0,0
2216,,Melbourne Av after National Cct,-35.313832,149.119077,,,0,0
2217,,Melbourne Av after Canterbury Cr,-35.312177,149.120541,,,0,0
2218,,State Cir after Melbourne Av,-35.311169,149.120628,,,0,0
2219,,Gawler Cr opp Canberra Girls Grammar Senior School,-35.317139,149.11316,,,0,0
2220,,Canberra Girls Grammar Senior School Gawler Cr,-35.317222,149.113343,,,0,0
2221,,Gawler Cr before Robe St,-35.31442,149.110472,,,0,0
2222,,Hopetoun Cct before Grey St,-35.313076,149.10766,,,0,0
2223,,Hopetoun Cct after Grose St,-35.313062,149.107382,,,0,0
2224,,Hopetoun Cct after 1st Hampton Cct,-35.309643,149.106629,,,0,0
2225,,Hopetoun Cct after Weston St,-35.310257,149.106627,,,0,0
2226,,Hopetoun Cct before Loftus St,-35.307367,149.106482,,,0,0
2227,,Hopetoun Cct before 1st Hampton Cct,-35.307424,149.106565,,,0,0
2228,,Hopetoun Cct before Schlich St,-35.305177,149.106825,,,0,0
2229,,Schlich St before Broome Cr,-35.30459,149.104681,,,0,0
2230,,Schlich St before Hopetoun Cct,-35.304595,149.106301,,,0,0
2231,,Schlich St before Musgrave St,-35.304428,149.103817,,,0,0
2232,,Eyre St after Howitt St,-35.31544,149.143959,,,0,0
2233,,Wentworth Av after Giles St,-35.314297,149.144498,,,0,0
2234,,Wentworth Av after Dawes St,-35.317354,149.146322,,,0,0
2235,,Wentworth Av before Dawes St,-35.317088,149.145545,,,0,0
2240,,Nemarang Cr opp Larakia St,-35.35193,149.063966,,,0,0
2245,,Parliament House Federation Mall Northbound,-35.305533,149.126073,,,0,0
2246,,Parliament House Federation Mall Southbound,-35.306085,149.127012,,,0,0
2247,,Commonwealth Av opp Albert Hall,-35.297891,149.126295,,,0,0
2248,,Albert Hall Commonwealth Av,-35.297776,149.125878,,,0,0
2249,,Nemarang Cr after Galibal St,-35.352322,149.066874,,,0,0
2251,,Nemarang Cr after Yiman St,-35.352526,149.067154,,,0,0
2254,,National Cct after Sydney Av,-35.311874,149.132453,,,0,0
2255,,National Cct before Syndey Av,-35.312135,149.132407,,,0,0
2256,,National Cct before Bourke St,-35.310889,149.133151,,,0,0
2257,,National Cct after Darling St,-35.309925,149.133216,,,0,0
2258,,Barton Bus Stn Plt 1,-35.306076,149.133149,,,0,0
2259,,Barton Bus Stn Plt 2,-35.305591,149.133041,,,0,0
2261,,Fairbairn Av before Creswell St,-35.283204,149.154216,,,0,0
2262,,Fairbairn Av after Mount Ainslie Dr,-35.28529,149.162379,,,0,0
2263,,Fairbairn Av after Truscott St,-35.28525,149.161835,,,0,0
2264,,Gilmore Cr opp Garran PS,-35.343983,149.101423,,,0,0
2265,,Garran PS Gilmore Cr,-35.343981,149.101604,,,0,0
2266,,Kitchener St before 1st Gilmore Cr,-35.338278,149.102482,,,0,0
2267,,Kitchener St before Lynch St,-35.338147,149.102228,,,0,0
2268,,Kitchener St after McNicoll St,-35.335958,149.100673,,,0,0
2269,,Kitchener St before Birdwood St,-35.335187,149.100011,,,0,0
2270,,Kitchener St before Goble St,-35.333996,149.098343,,,0,0
2271,,Kitchener St opp Goble St,-35.333877,149.097867,,,0,0
2272,,Kent St opp Hughes Shops,-35.333129,149.095038,,,0,0
2273,,Kent St before Birdwood St,-35.329608,149.094568,,,0,0
2274,,Kent St after Jensen St,-35.329378,149.094521,,,0,0
2275,,Kent St opp Alfred Deakin HS,-35.325357,149.096393,,,0,0
2276,,Alfred Deakin HS Kent St,-35.324939,149.096525,,,0,0
2277,,Royal Life Saving House Kent St,-35.322316,149.097729,,,0,0
2278,,Canberra Private Hospital Kent St,-35.319844,149.098179,,,0,0
2279,,Kent St opp Canberra Private Hospital,-35.319343,149.09831,,,0,0
2280,,Strickland Cr before Kent St,-35.318473,149.098854,,,0,0
2281,,Strickland Cr before Macgregor St,-35.318425,149.099019,,,0,0
2282,,Macgregor St after Cairns St,-35.31718,149.101426,,,0,0
2283,,Macgregor St before Nathan St,-35.316947,149.102007,,,0,0
2284,,Macgregor St before Stradbroke St,-35.316323,149.105658,,,0,0
2285,,Macgregor St after De Chair St,-35.316264,149.105207,,,0,0
2286,,Macgregor St opp Deakin Shops,-35.31546,149.10831,,,0,0
2287,,Deakin Shops Hopetoun Cct,-35.314875,149.108376,,,0,0
2288,,Gawler Cr opp Robe St,-35.314785,149.11117,,,0,0
2289,,Yambina Cr after Nemarang Cr,-35.356553,149.059737,,,0,0
2290,,Mawson Dr after Wilkins St,-35.363346,149.096533,,,0,0
2291,,Kent St opp Royal Life Saving House,-35.322115,149.097904,,,0,0
2292,,Yambina Cr after Wirangu Pl,-35.356549,149.059626,,,0,0
2293,,Ainsworth St before Mawson Dr,-35.361447,149.098717,,,0,0
2294,,Mawson PS Ainsworth St,-35.3599,149.097833,,,0,0
2295,,Ainsworth St opp Mawson PS,-35.359881,149.097633,,,0,0
2296,,Canberra Christian School Ainsworth St,-35.356095,149.097686,,,0,0
2297,,Ainsworth St opp Canberra Christian School,-35.356543,149.097409,,,0,0
2298,,Streeton Dr before Bangalay Cr,-35.350687,149.04215,,,0,0
2299,,Streeton Dr after Darwinia Tce,-35.352504,149.041594,,,0,0
2300,,Ainsworth St after Alsop Cl,-35.350578,149.093419,,,0,0
2301,,Ainsworth St after Hindmarsh Dr,-35.349842,149.093792,,,0,0
2302,,Gilmore Cr before 1st Eldridge Cr,-35.345755,149.104958,,,0,0
2303,,Gilmore Cr before Esson Pl,-35.345865,149.104937,,,0,0
2304,,John James Hospital Strickland Cr,-35.318467,149.09562,,,0,0
2305,,Strickland Cr opp John James Hospital,-35.318363,149.09534,,,0,0
2306,,Novar St after Kintore Cr,-35.311956,149.098203,,,0,0
2307,,Novar St before Weston St,-35.310115,149.098205,,,0,0
2308,,Yarralumla Shops Novar St,-35.307926,149.098184,,,0,0
2313,,Melbourne Av opp Canberra Girls Grammar Senior Sch,-35.318479,149.115575,,,0,0
2328,,Canberra Av after Giles St,-35.320037,149.138344,,,0,0
2329,,Giles St before Canberra Av,-35.319444,149.137537,,,0,0
2330,,Giles St after Leichhardt St,-35.317203,149.138968,,,0,0
2331,,Eyre St before Leichhardt St,-35.318267,149.140351,,,0,0
2332,,Dalrymple St before Goyder St,-35.342952,149.138483,,,0,0
2333,,Dalrymple St after Goyder St,-35.343101,149.138637,,,0,0
2334,,Jindalee Aged Care Goyder St,-35.341372,149.142414,,,0,0
2335,,Goyder St opp Jindalee Aged Care,-35.341204,149.142496,,,0,0
2338,,Narrabundah College Goyder St,-35.338409,149.148004,,,0,0
2339,,Goyder St opp Narrabundah College,-35.338199,149.148566,,,0,0
2340,,Goyder St opp Kyeema St,-35.336696,149.153516,,,0,0
2341,,Goyder St after Kyeema St,-35.336754,149.152926,,,0,0
2342,,130 Goyder St,-35.337065,149.156005,,,0,0
2343,,Goyder St opp 128,-35.337125,149.156512,,,0,0
2344,,92 Matina St,-35.334382,149.158643,,,0,0
2345,,Matina St opp 98,-35.334741,149.158479,,,0,0
2346,,Kootara Cr after Deeban Pl,-35.333006,149.158418,,,0,0
2347,,Kootara Cr after Matina St,-35.333096,149.158548,,,0,0
2348,,Kootara Cr before Boolimba Cr,-35.332973,149.156621,,,0,0
2350,,Narrabundah Shops Kootara Cr,-35.332518,149.154712,,,0,0
2351,,Kootara Cr opp Narrabundah Shops,-35.331939,149.153696,,,0,0
2352,,Kootara Cr before Bundeela St,-35.331173,149.152186,,,0,0
2353,,Narrabundah PS Kootara Cr,-35.329926,149.15098,,,0,0
2354,,Kootara Cr opp Narrabundah PS,-35.328893,149.150082,,,0,0
2355,,Kootara Cr before Keira St,-35.327325,149.149504,,,0,0
2361,,McIntyre St after Stuart St,-35.33147,149.145318,,,0,0
2362,,McIntyre St opp Stuart St,-35.331757,149.145026,,,0,0
2363,,Stuart St at Strzelecki Cr,-35.330777,149.143752,,,0,0
2364,,Stuart St before Strzelecki Cr,-35.330178,149.143406,,,0,0
2365,,Griffith Shops Stuart St,-35.328656,149.142124,,,0,0
2366,,Stuart St opp Griffith Shops,-35.327962,149.141294,,,0,0
2367,,Stuart St before Barrallier St,-35.325495,149.139212,,,0,0
2368,,Stuart St after Barrallier St,-35.325555,149.139401,,,0,0
2369,,Stuart St after Hann St,-35.323676,149.137787,,,0,0
2370,,Stuart St after Lockyer St,-35.323669,149.137651,,,0,0
2371,,Captain Cook Cr opp Manuka Shops,-35.321071,149.1351,,,0,0
2372,,Manuka Shops Captain Cook Cr,-35.321679,149.134521,,,0,0
2373,,Wentworth Av opp Old Bus Depot Markets,-35.313088,149.143217,,,0,0
2374,,Old Bus Depot Markets Wentworth Av,-35.311627,149.142874,,,0,0
2375,,Brisbane Av after Macquarie St,-35.309258,149.136503,,,0,0
2376,,Australian Federal Police College Brisbane Av,-35.309746,149.13704,,,0,0
2378,,St Peter & St Pauls PS Yamba Dr,-35.339999,149.093123,,,0,0
2379,,Yamba Dr before Kitchener St,-35.342462,149.096904,,,0,0
2380,,Yamba Dr opp Justinian St,-35.341134,149.094758,,,0,0
2382,,Canberra Hospital Yamba Dr,-35.346484,149.09975,,,0,0
2387,,Ipswich St after Wiluna St,-35.329129,149.163029,,,0,0
2389,,Gladstone St before Maryborough St,-35.323608,149.172673,,,0,0
2390,,Gladstone St before Kembla St,-35.322264,149.174749,,,0,0
2391,,86 Gladstone St,-35.322294,149.17964,,,0,0
2392,,120 Gladstone St,-35.32397,149.182203,,,0,0
2394,,Canberra Montessori School Mulley St,-35.331921,149.049059,,,0,0
2395,,Blackwood Tce after Calder Cr,-35.334339,149.048455,,,0,0
2396,,Blackwood Tce after Mulley St,-35.334412,149.048503,,,0,0
2397,,Blackwood Tce after Pearson St,-35.335625,149.046473,,,0,0
2398,,Macfarland Cr opp Pearce Shops,-35.363155,149.08133,,,0,0
2401,,Newcastle St before Molonglo Mall,-35.32912,149.178163,,,0,0
2403,,Wollongong St before Maryborough St,-35.327447,149.177517,,,0,0
2406,,Albany St before Collie St,-35.327406,149.1812,,,0,0
2407,,Wollongong St after Collie St,-35.326724,149.178392,,,0,0
2408,,Blackwood Tce after Hyndes Cr,-35.335564,149.046361,,,0,0
2409,,Burrinjuck Cr after 1st Serpentine St,-35.332888,149.037338,,,0,0
2410,,Wyangala St before Hindmarsh Dr,-35.342558,149.032302,,,0,0
2415,,Waramanga Shops Nemerang Cr,-35.352477,149.060606,,,0,0
2416,,Nemarang Cr opp Waramanga Shops,-35.352679,149.060601,,,0,0
2417,,Arawang PS Nemerang Cr,-35.355483,149.060234,,,0,0
2418,,Nemarang Cr opp Arawang PS,-35.355402,149.060384,,,0,0
2419,,Yambina Cr before Wirangu Pl,-35.357395,149.059464,,,0,0
2421,,Yambina Cr before Badimara St,-35.35776,149.059478,,,0,0
2423,,Fremantle Dr after Bunbury St,-35.349007,149.04955,,,0,0
2424,,Fremantle Dr opp Bunbury St,-35.34894,149.049422,,,0,0
2425,,Fremantle Dr after 2nd Mackie Cr,-35.352453,149.049215,,,0,0
2426,,Fremantle Dr opp 2nd Reveley Cr,-35.352507,149.049037,,,0,0
2427,,Fremantle Dr after 1st Reveley Cr,-35.353363,149.04755,,,0,0
2428,,Fremantle Dr before Crowder Cct,-35.353851,149.04689,,,0,0
2429,,Bangalay Cr after Casuarina St,-35.349006,149.036425,,,0,0
2430,,Bangalay Cr opp Casuarina St,-35.349009,149.036661,,,0,0
2431,,Bangalay Cr opp Rivett Shops,-35.34678,149.035971,,,0,0
2432,,Rivett Shops Bangalay Cr,-35.347034,149.036029,,,0,0
2433,,Carbeen St after Bangalay Cr,-35.344349,149.039507,,,0,0
2434,,Carbeen St after 2nd Gungurra Cr,-35.34447,149.039452,,,0,0
2435,,Carbeen St opp 2nd Gungurra Cr,-35.344016,149.043047,,,0,0
2436,,Carbeen St after 1st Gungurra Cr,-35.344128,149.042989,,,0,0
2437,,Carbeen St before Tristania St,-35.342446,149.04569,,,0,0
2438,,Carbeen St before Hindmarsh Dr,-35.342385,149.045523,,,0,0
2439,,Kootara Cr after 2nd Gymea St,-35.332769,149.156052,,,0,0
2444,,Kootara Cr before McMillan Cr,-35.326259,149.149166,,,0,0
2448,,Novar St before Kintore Cr,-35.312031,149.098293,,,0,0
2449,,Novar St after Weston St,-35.310151,149.098289,,,0,0
2450,,Novar St opp Yarralumla Shops,-35.307386,149.098311,,,0,0
2451,,Schlich St before Novar St,-35.303827,149.09873,,,0,0
2452,,Schlich St after Novar St,-35.303772,149.099083,,,0,0
2453,,Tyagarah St after Culgoa Cct,-35.349919,149.106148,,,0,0
2454,,Julia Flynn Av before 1st Ellwood Cr,-35.364222,149.110326,,,0,0
2457,,Julia Flynn Av before Crook Pl,-35.36558,149.112573,,,0,0
2458,,Julia Flynn Av before 2nd Ringrose Cr,-35.365765,149.112523,,,0,0
2459,,Julia Flynn Av opp Isaacs Shops,-35.36722,149.112822,,,0,0
2460,,Isaacs Shops Julia Flynn Av,-35.367296,149.112619,,,0,0
2461,,Julia Flynn Av after Dorsch St,-35.370031,149.111467,,,0,0
2462,,Julia Flynn Av opp Dorsch St,-35.370236,149.111729,,,0,0
2463,,Julia Flynn Av after 2nd Rule St,-35.37172,149.113458,,,0,0
2464,,Julia Flynn Av before 2nd Walton St,-35.371902,149.113857,,,0,0
2465,,Julia Flynn Av after Huffer Cl,-35.373262,149.11602,,,0,0
2466,,Julia Flynn Av opp Rooney Pl,-35.373338,149.11589,,,0,0
2467,,Julia Flynn Av after 2nd Rowntree Cr,-35.375625,149.114685,,,0,0
2468,,Julia Flynn Av after Alexander Mackie Cct,-35.375629,149.114516,,,0,0
2469,,Dookie St after Hawkesbury Cr,-35.376743,149.109216,,,0,0
2470,,Dookie St after Longerenong St,-35.376729,149.10911,,,0,0
2471,,Farrer PS Lambrigg St,-35.378992,149.107141,,,0,0
2472,,Lambrigg St opp Farrer PS,-35.379151,149.107245,,,0,0
2473,,Lambrigg St opp Prescott St,-35.377864,149.103944,,,0,0
2474,,Lambrigg St after Prescott St,-35.377961,149.10376,,,0,0
2475,,Marshall St opp Farrer Shops,-35.374983,149.101027,,,0,0
2476,,Farrer Shops Marshall St,-35.375147,149.101153,,,0,0
2477,,Marshall St opp Goodwin Village Farrer,-35.373633,149.101711,,,0,0
2478,,Goodwin Village Farrer Marshall St,-35.372818,149.101828,,,0,0
2479,,Mawson Dr after Hurley St,-35.363194,149.096452,,,0,0
2480,,Ainsworth St after Mawson Dr,-35.361673,149.098629,,,0,0
2481,,Ainsworth St before Power St,-35.35342,149.09558,,,0,0
2482,,Ainsworth St before Butters Dr,-35.353955,149.096909,,,0,0
2483,,Ainsworth St opp Woden CIT,-35.347851,149.094895,,,0,0
2484,,CIT Woden Ainsworth St,-35.347935,149.095029,,,0,0
2485,,Ainsworth St after Kitchener St,-35.346014,149.096768,,,0,0
2486,,Ainsworth St before Kitchener St,-35.345693,149.096674,,,0,0
2487,,Kitchener St after Ainsworth St,-35.344435,149.097398,,,0,0
2488,,Kitchener St before Ainsworth St,-35.344604,149.09724,,,0,0
2492,,Bangalay Cr before 1st Mirbelia Cr,-35.349342,149.038757,,,0,0
2493,,Bangalay Cr opp 2nd Mirbelia Cr,-35.349293,149.039816,,,0,0
2494,,Kalgoorlie Cr after Mareeba St,-35.357795,149.053453,,,0,0
2495,,Kalgoorlie Cr before 2nd Bendigo St,-35.357755,149.053334,,,0,0
2496,,Mt Stromlo HS Badimara St,-35.355702,149.054441,,,0,0
2497,,Badimara St opp Mt Stromlo HS,-35.355706,149.054251,,,0,0
2499,,Devonport St opp Lyons Shops,-35.338826,149.075846,,,0,0
2500,,Devonport St after 1st Scottsdale St,-35.336488,149.074674,,,0,0
2501,,41 Devonport St,-35.33646,149.074514,,,0,0
2502,,Devonport St opp 1st Derwent St,-35.334276,149.072025,,,0,0
2503,,Devonport St after 2nd Derwent St,-35.334434,149.072019,,,0,0
2504,,Heysen St before Devonport St,-35.333039,149.069297,,,0,0
2505,,Heysen St after Devonport St,-35.333242,149.069216,,,0,0
2506,,Mulley St after Dixon Dr,-35.330708,149.048483,,,0,0
2507,,Warragamba Av before Jindabyne St,-35.330566,149.034912,,,0,0
2508,,Warragamba Av opp Jindabyne St,-35.330468,149.034831,,,0,0
2509,,Burrinjuck Cr after 2nd Tantangara St,-35.339542,149.036342,,,0,0
2510,,Burrinjuck Cr after Kallara Cl,-35.339579,149.036765,,,0,0
2513,,Mulley St opp Canberra Montessori School,-35.33265,149.048917,,,0,0
2514,,Mulley St before Dixon Dr,-35.330704,149.048379,,,0,0
2520,,Beasley St opp Torrens Shops,-35.373643,149.087106,,,0,0
2521,,Namatjira Dr after Bunbury St,-35.347093,149.057011,,,0,0
2522,,Streeton Dr opp Darwinia Tce,-35.352406,149.041742,,,0,0
2523,,Streeton Dr opp Bangalay Cr,-35.350883,149.042233,,,0,0
2530,,Gilmore Cr at 1st Ingamells St,-35.339495,149.103561,,,0,0
2531,,Gilmore Cr after Sabine Cl,-35.339659,149.104092,,,0,0
2532,,Gilmore Cr after 2nd Ingamells St,-35.340067,149.107456,,,0,0
2533,,Gilmore Cr opp 1st Ingamells St,-35.340057,149.107089,,,0,0
2534,,Garran Shops Gilmore Cr,-35.342045,149.108792,,,0,0
2535,,Gilmore Cr opp Garran Shops,-35.342086,149.108972,,,0,0
2536,,Gilmore Cr before Hartigan St,-35.343476,149.108857,,,0,0
2537,,Gilmore Cr after Hopegood Pl,-35.34425,149.108032,,,0,0
2539,,Gilmore Cr opp 1st Eldridge Cr,-35.344997,149.107064,,,0,0
2540,,Hughes Shops Wisdom St,-35.33292,149.094179,,,0,0
2542,,Streeton Dr before Namatjira Dr,-35.355681,149.048834,,,0,0
2553,,Gold Creek PS Kelleway Av,-35.18152,149.100659,,,0,0
2556,,Melbourne Av before Empire Cct,-35.316638,149.116575,,,0,0
2558,,Daramalan College Cowper St,-35.252645,149.139351,,,0,0
2560,,Ipima St before Wise St,-35.266106,149.136872,,,0,0
2563,,Starke St after Powell St,-35.227714,149.01811,,,0,0
2565,,Warragamba Av before Eucumbene Dr,-35.331036,149.02963,,,0,0
2566,,Warragamba Av after Eucumbene Dr,-35.330917,149.029804,,,0,0
2569,,Melba HS School Grounds SSO,-35.213887,149.049099,,,0,0
2571,,Narrabundah College Jerrabomberra Av,-35.335868,149.147893,,,0,0
2572,,St Michaels PS Tyrell Cct,-35.223607,149.108981,,,0,0
2576,,Astrolabe St Red Hill PS SSO,-35.339401,149.1325,,,0,0
2581,,Brindabella Christian College Brigalow St,-35.24929,149.12742,,,0,0
2582,,Streeton Dr after Namatjira Dr,-35.355708,149.048641,,,0,0
2586,,Parliament House Parliament Dr Southbound,-35.307268,149.122739,,,0,0
2587,,Parliament House Parliament Dr Northbound,-35.309077,149.126087,,,0,0
2589,,Cooleman Court Interchange Plt 3,-35.34099,149.052342,,,0,0
2591,,Namatjira Dr after Parkinson St,-35.343054,149.057398,,,0,0
2592,,Callam St after Hindmarsh Dr,-35.34819,149.089343,,,0,0
2593,,Melbourne Av after Somers Cr,-35.312928,149.120525,,,0,0
2594,,Melbourne Av at National Cct,-35.314611,149.119025,,,0,0
2595,,Melbourne Av at Empire Cct,-35.316413,149.117423,,,0,0
2596,,Kingston Shops Eyre St,-35.316625,149.141813,,,0,0
2597,,Brigalow St opp Brindabella Christian College,-35.249014,149.127287,,,0,0
2598,,Kingston Shops Giles St,-35.315802,149.140198,,,0,0
2601,,Canberra Hospital Hospital Rd,-35.346322,149.101786,,,0,0
2604,,Bateson Rd before Canberra Hospital,-35.348687,149.102701,,,0,0
2609,,Southlands Shops Athllon Dr,-35.364908,149.092621,,,0,0
2610,,Athllon Dr opp Southlands Shops,-35.363343,149.092283,,,0,0
2613,,Gladstone St before Cessnock St,-35.3232,149.1729,,,0,0
2614,,83 - 85 Gladstone St,-35.322006,149.179358,,,0,0
2615,,127 Gladstone St,-35.324015,149.182396,,,0,0
2616,,Gladstone St opp Albany St,-35.325374,149.183654,,,0,0
2617,,Bateson Rd after Canberra Hospital,-35.348599,149.102806,,,0,0
2623,,Newcastle St after Wollongong St,-35.328876,149.178299,,,0,0
2634,,Canberra Av after Monaro Hwy,-35.330461,149.16115,,,0,0
2642,,Gawler Cr before Deakin Shops,-35.314271,149.108831,,,0,0
2643,,Gawler Cr after Deakin Shops,-35.314215,149.108768,,,0,0
2646,,Namatjira Dr after Hindmarsh Dr,-35.347112,149.057165,,,0,0
2647,,Namatjira Dr before Badimara St,-35.353404,149.052595,,,0,0
2650,,Athllon Dr after Shea St,-35.351277,149.090695,,,0,0
2651,,Athllon Dr opp Shea St,-35.352368,149.091278,,,0,0
2652,,Athllon Dr after Beasley St,-35.371283,149.092671,,,0,0
2653,,Athllon Dr 2nd after Beasley St,-35.375775,149.09321,,,0,0
2654,,Beasley St after Marshall St,-35.371151,149.100719,,,0,0
2655,,Beasley St opp Wilkins St,-35.371724,149.09871,,,0,0
2669,,Streeton Dr opp Chapman PS,-35.354909,149.042503,,,0,0
2670,,Chapman PS Streeton Dr,-35.354765,149.04218,,,0,0
2671,,Ainsworth St opp Hobury St,-35.352035,149.09401,,,0,0
2672,,Ainsworth St before Horbury St,-35.352021,149.093789,,,0,0
2673,,Athllon Dr at Beasley St,-35.372591,149.093063,,,0,0
2674,,Beasley St after Torrens Pl,-35.372924,149.088827,,,0,0
2675,,142 Beasley St,-35.372983,149.088941,,,0,0
2676,,Dixon Dr before Blackwood Tce,-35.333656,149.039023,,,0,0
2677,,Dixon Dr before 2nd Burrinjuck Cr,-35.33359,149.038904,,,0,0
2678,,Canberra Av before Mildura St,-35.326703,149.155511,,,0,0
2679,,Westfield Woden Corinna St,-35.345916,149.084212,,,0,0
2680,,Canberra Av after Nyrang St,-35.325695,149.153409,,,0,0
2687,,Athllon Dr opp Parramatta St,-35.355429,149.091612,,,0,0
2688,,Athllon Dr after Parramatta St,-35.354038,149.091313,,,0,0
2690,,Namatjira Dr before Macnally St,-35.339349,149.054694,,,0,0
2695,,Tom Roberts Av opp 1st Templestowe Av,-35.465682,149.105927,,,0,0
2696,,Tharwa Dr after Drakeford Dr,-35.44526,149.093656,,,0,0
2697,,Tharwa Dr before Drakeford Dr,-35.445199,149.093261,,,0,0
2698,,Tharwa Dr before Box Hill Av,-35.454626,149.091331,,,0,0
2699,,Tharwa Dr after Box Hill Av,-35.454625,149.090981,,,0,0
2705,,Woden Interchange Plt 3,-35.344481,149.08737,,https://www.transport.act.gov.au/__data/assets/pdf_file/0016/1244203/TC_station_woden.pdf,0,0
2706,,Woden Interchange Plt 4,-35.344444,149.0876,,https://www.transport.act.gov.au/__data/assets/pdf_file/0016/1244203/TC_station_woden.pdf,0,0
2709,,Woden Interchange Plt 6,-35.34424,149.087812,,https://www.transport.act.gov.au/__data/assets/pdf_file/0016/1244203/TC_station_woden.pdf,0,0
2710,,Woden Interchange Plt 7,-35.34391,149.087758,,https://www.transport.act.gov.au/__data/assets/pdf_file/0016/1244203/TC_station_woden.pdf,0,0
2712,,Woden Interchange Plt 8,-35.344002,149.087621,,https://www.transport.act.gov.au/__data/assets/pdf_file/0016/1244203/TC_station_woden.pdf,0,0
2716,,Woden Interchange Plt 11,-35.344446,149.086941,,https://www.transport.act.gov.au/__data/assets/pdf_file/0016/1244203/TC_station_woden.pdf,0,0
2717,,Jim Pike Av after 1st Charlton Cr,-35.460817,149.078202,,,0,0
2718,,Soward Way after Athllon Dr,-35.419474,149.066372,,,0,0
2730,,Kent St after Macartney Cr,-35.317013,149.098298,,,0,0
2731,,Kent St after Strickland Cr,-35.317149,149.098201,,,0,0
2803,,Steve Irwin Av before Ulysses Cct,-35.324372,149.036256,,,0,0
2804,,Woden Interchange Plt 2,-35.344539,149.086956,,https://www.transport.act.gov.au/__data/assets/pdf_file/0016/1244203/TC_station_woden.pdf,0,0
2805,,Steve Irwin Av before David Fleay St,-35.324558,149.036357,,,0,0
2806,,Steve Irwin Av after John Gorton Dr,-35.320403,149.036667,,,0,0
2809,,John Gorton Dr after Steve Irwin Av,-35.319416,149.036656,,,0,0
2810,,John Gorton Dr after Fred Daly Av,-35.320016,149.037916,,,0,0
2811,,John Gorton Dr after Cotter Rd,-35.324779,149.043384,,,0,0
2812,,John Gorton Dr after Harold White Av,-35.325386,149.044625,,,0,0
2814,,Woden Interchange Plt 9,-35.34435,149.087515,,https://www.transport.act.gov.au/__data/assets/pdf_file/0016/1244203/TC_station_woden.pdf,0,0
2815,,Woden Interchange Plt 10,-35.344399,149.087264,,https://www.transport.act.gov.au/__data/assets/pdf_file/0016/1244203/TC_station_woden.pdf,0,0
2820,,Streeton Drive after Unwin Pl,-35.32918,149.05393,,,0,0
2821,,Streeton Dr after Dixon Dr,-35.32795,149.05353,,,0,0
2822,,Cotter Rd After Streeton Dr,-35.326971,149.05264,,,0,0
2824,,Fyshwick Park & Ride Iron Knob St,-35.338688,149.182785,,,0,0
2825,,Canberra Av after Whyalla St,-35.335951,149.172779,,,0,0
2826,,Wyndham Av after Bielski St,-35.305351,149.026999,,,0,0
2827,,Wyndham Av before Bielski St,-35.305519,149.026776,,,0,0
2828,,Kondelea Way before Ada Norris Av,-35.302958,149.020901,,,0,0
2829,,Kondelea Way at Ada Norris Av,-35.30349,149.020793,,,0,0
2830,,Denman Prospect Shops Felstead Vista,-35.299328,149.02188,,,0,0
2831,,Felstead Vista opp Denman Prospect Shops,-35.299141,149.021974,,,0,0
2832,,Holborow Av before Eureka Way,-35.299125,149.026735,,,0,0
2833,,Holborow Av after Eureka Way,-35.298894,149.026815,,,0,0
2834,,Holborow Av after Greenwood St,-35.298937,149.029989,,,0,0
2835,,Holborow Av after Greenwood St,-35.298611,149.031947,,,0,0
2836,,John Gorton Dr after Wyndham Av,-35.30436,149.03199,,,0,0
2837,,John Gorton Dr before Wyndham Av,-35.30465,149.03217,,,0,0
2839,,John Gorton Dr after Holborow Av,-35.299656,149.034225,,,0,0
2840,,Annabelle View before Harold White Av,-35.320301,149.046979,,,0,0
2841,,Annabelle View after Harold White Av,-35.320311,149.046786,,,0,0
2842,,Harold White Av after Woodberry Av,-35.324459,149.044806,,,0,0
2843,,Harold White Av before Woodberry Av,-35.324316,149.044733,,,0,0
2845,,John Gorton Dr after Opperman Av,-35.311998,149.031926,,,0,0
2846,,John Gorton Dr opp Opperman Av,-35.312967,149.032645,,,0,0
2908,,Woden Interchange Plt 5,-35.344531,149.087902,,https://www.transport.act.gov.au/__data/assets/pdf_file/0016/1244203/TC_station_woden.pdf,0,0
2916,,Woden Interchange Arrivals,-35.344531,149.087276,,https://www.transport.act.gov.au/__data/assets/pdf_file/0016/1244203/TC_station_woden.pdf,0,0
2919,,Ipswich St before Canberra Av,-35.329094,149.162797,,,0,0
2925,,Forrest PS National Cct,-35.315401,149.126899,,,0,0
2926,,National Cct opp Forrest PS,-35.315571,149.126543,,,0,0
2941,,Newcastle St after Gladstone St,-35.324994,149.172318,,,0,0
2943,,Canberra Av after Geelong St,-35.333471,149.167616,,,0,0
2944,,Canberra Av before Faulding St,-35.335005,149.169987,,,0,0
2948,,Canberra Outlet Centre Iron Knob St,-35.336291,149.179587,,,0,0
3,,Athllon Dr opp Learmonth Dr,-35.402793,149.065015,,,0,0
3000,,City Interchange Plt 9 Arrivals,-35.278839,149.130649,,https://www.transport.act.gov.au/__data/assets/pdf_file/0008/1244195/TC_station_city.pdf,0,0
3003,,London Cct opp Legislative Assembly,-35.281562,149.131859,,,0,0
3004,,London Cct after Akuna St,-35.28228,149.13209,,,0,0
3005,,National Convention Centre Constitution Av,-35.2851,149.134189,,,0,0
3006,,CIT Reid Constitution Av,-35.28677,149.137069,,,0,0
3007,,Constitution Av opp Anzac Park West,-35.288212,149.139444,,,0,0
3008,,Constitution Av opp Anzac Park East,-35.29028,149.142899,,,0,0
3009,,Constitution Av after Creswell St,-35.291834,149.145516,,,0,0
3011,,Russell Offices Russell Dr,-35.297298,149.150267,,,0,0
3012,,Edmund Barton Building Kings Av,-35.304286,149.134813,,,0,0
3017,,John James Hospital Denison St,-35.318962,149.094094,,,0,0
3018,,Denison St after Napier Cl,-35.32186,149.094042,,,0,0
3019,,The Woden School Denison St,-35.32603,149.091969,,,0,0
3020,,Denison St opp The Woden School,-35.325909,149.091861,,,0,0
3021,,Denison St after King St,-35.322186,149.093885,,,0,0
3022,,Royal Australian Mint Denison St,-35.318826,149.093972,,,0,0
3025,,Carruthers St opp Groom St,-35.326753,149.089967,,,0,0
3028,,Kings Av before King Edward Tce,-35.303456,149.13614,,,0,0
3029,,Russell Dr opp Russell Offices,-35.29713,149.149903,,,0,0
3031,,Constitution Av after Russell Dr,-35.29178,149.145157,,,0,0
3032,,Anzac Park East Constitution Av,-35.290291,149.142609,,,0,0
3033,,Constitution Av after Anzac Park West,-35.28809,149.138939,,,0,0
3034,,Constitution Av opp CIT Reid,-35.286351,149.135991,,,0,0
3035,,Constitution Av opp National Convention Centre,-35.28486,149.13351,,,0,0
3036,,London Cct after Edinburgh Av,-35.282699,149.125554,,,0,0
3037,,London Cct opp City Police Station,-35.280645,149.125992,,,0,0
3042,,City West Alinga St,-35.278251,149.127036,,,0,0
3044,,Narrabundah Terminus Matina St,-35.331589,149.158968,,,0,0
3047,,Marcus Clarke St after Farrell Pl,-35.281334,149.124016,,,0,0
3051,,Ainslie Av after Cooyong St,-35.278721,149.136529,,,0,0
3052,,Canberra Centre,-35.279421,149.135019,,,0,0
3053,,Ainslie Av after Currong St,-35.278104,149.138127,,,0,0
3054,,Ainslie Av after Doonkuna St,-35.278548,149.138262,,,0,0
3055,,Ainslie Av after Elimatta St,-35.277059,149.140781,,,0,0
3056,,Ainslie Av before Elimatta St,-35.277577,149.140757,,,0,0
3060,,General Bridges Dr before Gallipoli Rd,-35.295156,149.166573,,,0,0
3061,,General Bridges Dr after Harrison Rd,-35.295108,149.166842,,,0,0
3062,,Robert Campbell Rd opp Miles Rd,-35.296523,149.168646,,,0,0
3063,,Robert Campbell Rd before Wilton Rd,-35.295992,149.169115,,,0,0
3064,,Robert Campbell Rd before Parnell Rd,-35.297811,149.167099,,,0,0
3065,,Parnell St opp Combes Rd,-35.299016,149.165864,,,0,0
3066,,Parnell St before Plant Rd,-35.299781,149.165019,,,0,0
3067,,Parnell St after Plant Rd,-35.300218,149.164438,,,0,0
3068,,Morrison Cct before Bruche Rd,-35.30203,149.163516,,,0,0
3069,,Morrison Cct after Bruche Rd,-35.301419,149.162591,,,0,0
3070,,Russell Dr after Morshead Dr,-35.300714,149.150943,,,0,0
3071,,Russell Dr before Kelliher Dr,-35.301408,149.151472,,,0,0
3072,,Russell Dr before Kings Av,-35.298779,149.150857,,,0,0
3073,,Russell Dr before Vivian Bullwinkel Way,-35.298741,149.151106,,,0,0
3074,,Blamey Cr before Watt St,-35.291778,149.149495,,,0,0
3075,,Blamey Cr before Vasey Cr,-35.291834,149.149888,,,0,0
3076,,Blamey Cr opp Chauvel St,-35.290635,149.152764,,,0,0
3077,,Blamey Cr after Chauvel St,-35.290421,149.152987,,,0,0
3078,,Campbell PS Chauvel St,-35.290636,149.155031,,,0,0
3079,,Chauvel St opp Campbell PS,-35.290934,149.155387,,,0,0
3080,,Vasey Cr opp 100,-35.289366,149.158089,,,0,0
3081,,100 Vasey Cr,-35.289438,149.158165,,,0,0
3082,,White St after Vasey Cr,-35.286985,149.157936,,,0,0
3083,,Vasey Cr after White St,-35.287827,149.158554,,,0,0
3084,,St Thomas More's PS White St,-35.286987,149.155453,,,0,0
3085,,White St before 2nd Glossop Cr,-35.286454,149.156599,,,0,0
3086,,Campbell Shops White St,-35.288538,149.153701,,,0,0
3087,,White St before 1st Glossop Cr,-35.287384,149.155054,,,0,0
3088,,Blamey Cr opp Edmondson St,-35.286949,149.152245,,,0,0
3089,,White St opp Campbell Shops,-35.288476,149.153582,,,0,0
3090,,Blamey Cr before Creswell St,-35.285634,149.14831,,,0,0
3091,,Blamey Cr before Edmondson St,-35.286234,149.151253,,,0,0
3092,,Currong St after Anzac Park West,-35.284318,149.143795,,,0,0
3093,,Blamey Cr after Creswell St,-35.285511,149.148117,,,0,0
3094,,Euree St before Elimatta St,-35.282051,149.142387,,,0,0
3095,,Currong St before Anzac Park West,-35.284329,149.143971,,,0,0
3096,,Gooreen St after Coranderrk St,-35.278631,149.142558,,,0,0
3097,,Euree St after Elimatta St,-35.282014,149.142569,,,0,0
3098,,Boldrewood St after Barry Dr,-35.271943,149.119452,,,0,0
3099,,Gooreen St after Allambee St,-35.278386,149.142543,,,0,0
3100,,Boldrewood St after Froggatt St,-35.270968,149.117849,,,0,0
3101,,Boldrewood St before Barry Dr,-35.272365,149.120285,,,0,0
3102,,Boldrewood St after Ridley St,-35.269943,149.116101,,,0,0
3103,,Boldrewood St before Froggatt St,-35.270709,149.117579,,,0,0
3104,,Boldrewood St before David St,-35.268954,149.114847,,,0,0
3105,,Boldrewood St before Spencer St,-35.269496,149.115556,,,0,0
3106,,Miller St after Hobbs St,-35.266756,149.113995,,,0,0
3107,,Miller St after Syme Cr,-35.267055,149.114068,,,0,0
3108,,Miller St at Cockle St,-35.264695,149.114329,,,0,0
3109,,Miller St before Faunce Cr,-35.264157,149.114538,,,0,0
3110,,Miller St before Hack St,-35.260928,149.114941,,,0,0
3111,,Miller St opp Hack St,-35.26072,149.115091,,,0,0
3112,,Miller St after Quandong St,-35.257307,149.115522,,,0,0
3113,,Miller St before Banksia St,-35.256979,149.115695,,,0,0
3114,,Miller St after Nardoo Cr,-35.253416,149.116123,,,0,0
3115,,Miller St after Scrivener St,-35.253724,149.116079,,,0,0
3116,,Miller St after Merrit Pl,-35.251058,149.118188,,,0,0
3117,,Miller St after Swainsona St,-35.250688,149.118947,,,0,0
3118,,Miller St before Wattle St,-35.249642,149.120453,,,0,0
3119,,Mackennal St before Wattle St,-35.248962,149.121741,,,0,0
3120,,Mackennal St before Earle St,-35.247823,149.122514,,,0,0
3121,,Mackennal St at Earle St,-35.24709,149.122761,,,0,0
3122,,Mackennal St before Archibald St,-35.245762,149.122858,,,0,0
3123,,Mackennal St after Archibald St,-35.245427,149.123051,,,0,0
3124,,Archibald St opp Ashton St,-35.245087,149.125022,,,0,0
3125,,Archibald St after Ashton St,-35.245155,149.124641,,,0,0
3126,,Archibald St before Mouat St,-35.245304,149.126498,,,0,0
3127,,Archibald St before Ashton St,-35.245333,149.126059,,,0,0
3128,,North Lyneham Shops Cossington Smith Cr,-35.241162,149.124282,,,0,0
3129,,Cossington Smith Cr before Fairweather Cct,-35.239918,149.121775,,,0,0
3130,,Cossington Smith Cr after Piguenit Cl,-35.236852,149.123986,,,0,0
3132,,Dickson Shops Cowper St,-35.250482,149.140589,,,0,0
3137,,Torrens St after Girrahween St,-35.26996,149.134598,,,0,0
3139,,Torrens St before Ipima St,-35.267979,149.134919,,,0,0
3140,,Torrens St after Henty St,-35.269882,149.134733,,,0,0
3141,,Ipima St after Torrens St,-35.266346,149.136068,,,0,0
3142,,Torrens St after Ipima St,-35.267573,149.13509,,,0,0
3143,,Cowper St after Limestone Av,-35.265386,149.13851,,,0,0
3144,,Cowper St opp All Saints Church,-35.265169,149.139266,,,0,0
3145,,Cowper St after 1st Bonney St,-35.264373,149.140879,,,0,0
3146,,Cowper St after Cox St,-35.263631,149.141568,,,0,0
3147,,Cowper St before Wakefield Av,-35.262013,149.141816,,,0,0
3148,,Cowper St at Wakefield Av,-35.261475,149.141977,,,0,0
3149,,Cowper St at 2nd Bonney St,-35.259595,149.141475,,,0,0
3150,,Cowper St before Suttor St,-35.259824,149.14181,,,0,0
3159,,Cowper St after Sherbrooke St,-35.257815,149.140126,,,0,0
3161,,Cowper St after Hope St,-35.254402,149.138945,,,0,0
3162,,Cowper St before Hope St,-35.254175,149.139078,,,0,0
3163,,Cowper St opp Daramalan College,-35.252617,149.139492,,,0,0
3164,,Cowper St opp Dickson Shops,-35.250227,149.140842,,,0,0
3165,,Windeyer St after Phillip Av,-35.241324,149.150794,,,0,0
3166,,Windeyer St opp Watson Shops,-35.239291,149.153783,,,0,0
3167,,Watson Shops Windeyer St,-35.239161,149.153594,,,0,0
3168,,Knox St at 2nd Higinbotham St,-35.239906,149.155945,,,0,0
3169,,Knox St after 1st Irvine St,-35.239514,149.155714,,,0,0
3170,,Knox St after 1st Higinbotham St,-35.242584,149.158686,,,0,0
3171,,Knox St after 2nd Irvine St,-35.242297,149.158503,,,0,0
3172,,Antill St opp Knox St,-35.242908,149.161223,,,0,0
3173,,Antill St after Knox St,-35.242768,149.161221,,,0,0
3174,,Antill St before Fison St,-35.241196,149.163368,,,0,0
3175,,Antill St opp Fison St,-35.241028,149.163382,,,0,0
3176,,Antill St opp Old Watson Terminus,-35.239647,149.165262,,,0,0
3177,,Old Watson Terminus Antill St,-35.239565,149.165225,,,0,0
3178,,Antill St before Negus St,-35.232078,149.166653,,,0,0
3179,,Antill St after Negus Cr,-35.232068,149.166568,,,0,0
3184,,Lyneham PS Brigalow St,-35.251267,149.125213,,,0,0
3185,,Hovea St after Macarthur Av,-35.259066,149.123703,,,0,0
3186,,Hovea St before Boronia Dr,-35.258258,149.123924,,,0,0
3187,,Scrivener St before Brigalow St,-35.255898,149.121969,,,0,0
3188,,Scrivener St after Karri St,-35.256129,149.122642,,,0,0
3189,,Brigalow St after Scrivener St,-35.254284,149.121414,,,0,0
3190,,Brigalow St before Scrivener St,-35.254883,149.121087,,,0,0
3195,,Antill St after Phillip Av,-35.246416,149.155931,,,0,0
3196,,Antill St before Phillip Av,-35.246427,149.156307,,,0,0
3197,,Madigan St after Antill St,-35.244645,149.160068,,,0,0
3198,,Madigan St before Antill St,-35.244689,149.159894,,,0,0
3199,,Madigan St opp Hackett Shops,-35.247096,149.162957,,,0,0
3200,,Hackett Shops Madigan St,-35.248046,149.163186,,,0,0
3201,,Madigan St opp Blue Gum PS,-35.249779,149.16408,,,0,0
3202,,Blue Gum PS Madigan St,-35.249874,149.163872,,,0,0
3203,,Madigan St before Mackenzie St,-35.25202,149.162279,,,0,0
3204,,Madigan St opp Mackenzie St,-35.25174,149.162547,,,0,0
3205,,Phillip Av opp Madigan St,-35.252667,149.159123,,,0,0
3206,,Phillip Av before Madigan St,-35.252836,149.159634,,,0,0
3207,,Phillip Av before Majura Av,-35.251424,149.156883,,,0,0
3208,,Phillip Av after Stott St,-35.251153,149.156741,,,0,0
3209,,Officer Cr after Salomons Pl,-35.251668,149.154608,,,0,0
3210,,Officer Cr before Majura Av,-35.251411,149.154301,,,0,0
3211,,Officer Cr after Agnew St,-35.253622,149.154742,,,0,0
3212,,Officer Cr after 2nd Hannan Cr,-35.253737,149.154445,,,0,0
3213,,Officer Cr before Gillen St,-35.255061,149.15287,,,0,0
3214,,Officer Cr opp Gillen St,-35.2549,149.152876,,,0,0
3215,,Officer Cr after Hawdon St,-35.256833,149.149891,,,0,0
3216,,Officer Cr after Beeby St,-35.256821,149.149623,,,0,0
3217,,Officer Cr before Tyson St,-35.258791,149.147878,,,0,0
3218,,Officer Cr before Davenport St,-35.258487,149.147839,,,0,0
3219,,Ebden St after 2nd Hoddle Gdns,-35.261354,149.147449,,,0,0
3220,,Ebden St after Wakefield Av,-35.261568,149.147273,,,0,0
3221,,O'Connell St opp Ainslie Shops,-35.262491,149.145898,,,0,0
3222,,Ainslie Shops O'Connell St,-35.26231,149.145757,,,0,0
3223,,Cox St before Campbell St,-35.263592,149.143947,,,0,0
3224,,Campbell St before Cox St,-35.263771,149.143528,,,0,0
3225,,Campbell St after Foveaux St,-35.265718,149.143343,,,0,0
3226,,Campbell St before Foveaux St,-35.265512,149.143242,,,0,0
3227,,Campbell St after 2nd Baker Gdns,-35.268477,149.144416,,,0,0
3228,,Campbell St after Leslie St,-35.268758,149.144453,,,0,0
3229,,Campbell St before Chisholm St,-35.271144,149.145964,,,0,0
3230,,Chisholm St after Paterson St,-35.271756,149.145537,,,0,0
3231,,Chisholm St after Howe Cr,-35.272643,149.143544,,,0,0
3232,,Chisholm St after Lister Cr,-35.272482,149.143697,,,0,0
3233,,Gooreen St after Donaldson St,-35.274395,149.140234,,,0,0
3234,,Gooreen St after Chapman St,-35.274651,149.140258,,,0,0
3235,,Gooreen St after Batman St,-35.276275,149.141326,,,0,0
3236,,Gooreen St before Batman St,-35.276208,149.141162,,,0,0
3237,,Melba St at Blacket St,-35.24731,149.142356,,,0,0
3238,,Melba St at Allport St,-35.247712,149.14242,,,0,0
3239,,Melba St after Legge St,-35.245492,149.142635,,,0,0
3240,,Melba St after Bradfield St,-35.24492,149.142878,,,0,0
3241,,Melba St after Atherton St,-35.243709,149.142941,,,0,0
3242,,Melba St after Bradfield St,-35.243787,149.14306,,,0,0
3243,,Bradfield St opp Frencham St,-35.24344,149.145499,,,0,0
3244,,Bradfield St after Frencham St,-35.243437,149.144497,,,0,0
3245,,Bradfield St before Nicholas St,-35.242508,149.14792,,,0,0
3246,,Bradfield St after Burn St,-35.242366,149.148285,,,0,0
3248,,Majura PS Knox St,-35.23798,149.153647,,,0,0
3249,,Knox St after 1st A'Beckett St,-35.237187,149.152321,,,0,0
3250,,Knox St opp 1st A'Beckett St,-35.234706,149.151706,,,0,0
3251,,Knox St after 2nd A'Beckett St,-35.234956,149.151576,,,0,0
3252,,Knox St before Piddington St,-35.232521,149.153198,,,0,0
3253,,Knox St after Molesworth St,-35.232348,149.153228,,,0,0
3258,,National Library King Edward Tce,-35.297957,149.129267,,,0,0
3259,,The Treasury Building King Edward Tce,-35.297867,149.128904,,,0,0
3260,,John Gorton Building Parkes Pl,-35.301184,149.133879,,,0,0
3261,,Parkes Pl opp John Gorton Building,-35.301181,149.133731,,,0,0
3262,,National Cct before Canberra Av,-35.314057,149.130378,,,0,0
3263,,National Cct opp Fitzroy St,-35.313804,149.130568,,,0,0
3270,,Monaro Cr before Flinders Way,-35.329658,149.128186,,,0,0
3271,,Monaro Cr after Flinders Way,-35.329126,149.128066,,,0,0
3272,,Canberra Senior Grammar School Golden Gr,-35.331576,149.128813,,,0,0
3273,,Golden Gr opp Canberra Senior Grammar School,-35.331882,149.128542,,,0,0
3274,,Golden Gr after Friendship St,-35.334904,149.125687,,,0,0
3275,,Golden Gr opp Alexander St,-35.334292,149.126241,,,0,0
3276,,Golden Gr before Friendship St,-35.336661,149.125743,,,0,0
3277,,Golden Gr before Quiros St,-35.336672,149.125852,,,0,0
3278,,Golden Gr after La Perouse St,-35.338756,149.126469,,,0,0
3279,,Golden Gr before La Perouse St,-35.338292,149.126307,,,0,0
3280,,La Perouse St before Cygnet Cr,-35.340634,149.129512,,,0,0
3281,,La Perouse St after Golden Gr,-35.339791,149.127017,,,0,0
3282,,La Perouse St before Red Hill Shops,-35.340621,149.132225,,,0,0
3283,,La Perouse St before Nuyts St,-35.340313,149.12873,,,0,0
3284,,La Perouse St before Dalrymple St,-35.33812,149.135785,,,0,0
3285,,La Perouse St opp Red Hill Shops,-35.340646,149.131012,,,0,0
3286,,Carnegie Cr after Finniss Cr,-35.337017,149.136597,,,0,0
3287,,Red Hill School La Perouse St,-35.339816,149.134013,,,0,0
3288,,Carnegie Cr after Scott St,-35.336901,149.140662,,,0,0
3289,,La Perouse St before Carnegie Cr,-35.338255,149.135671,,,0,0
3290,,Caley Cr before Sprent St,-35.33753,149.143658,,,0,0
3291,,Carnegie Cr after La Perouse St,-35.336948,149.136732,,,0,0
3292,,Caley Cr after Goyder St,-35.339461,149.145341,,,0,0
3293,,Carnegie Cr before Caley Cr,-35.336688,149.14082,,,0,0
3294,,Captain Cook Cr before Barrallier St,-35.32578,149.135261,,,0,0
3295,,Caley Cr after Sprent St,-35.337652,149.143892,,,0,0
3296,,Bremer St before Hodgkinson St,-35.329003,149.134687,,,0,0
3297,,Caley Cr before Goyder St,-35.339475,149.145476,,,0,0
3299,,Captain Cook Cr before Austin St,-35.326877,149.135214,,,0,0
3301,,Bremer St before Captain Cook Cr,-35.328977,149.134429,,,0,0
3318,,Canberra Railway Station,-35.319524,149.148638,,,0,0
3319,,Fred Daly Av after John Gorton Dr,-35.318909,149.038165,,,0,0
3321,,Wentworth Av opp Canberra Railway Stn,-35.319226,149.146794,,,0,0
3322,,Collie St after Wollongong St,-35.326815,149.179726,,,0,0
3323,,Albany St before Townsville St,-35.327073,149.181764,,,0,0
3329,,Fred Daly Av before John Gorton Dr,-35.319287,149.038078,,,0,0
3331,,Fred Daly Av after Yorston St,-35.313407,149.04256,,,0,0
3332,,Fred Daly Av before Buttfield St,-35.313765,149.04284,,,0,0
3345,,Aspinall St opp Watson Terminus,-35.230039,149.162081,,,0,0
3346,,Wattle St after Dyson St,-35.250488,149.122762,,,0,0
3347,,Brigalow St opp Lyneham Shops,-35.251412,149.124469,,,0,0
3351,,Milne Bay Rd after General Bridges Rd,-35.294172,149.162296,,,0,0
3352,,Tobruk Rd before Gallipoli Rd,-35.293787,149.164322,,,0,0
3353,,Canberra Airport,-35.307607,149.189463,,,0,0
3356,,Legislative Assembly London Cct,-35.281324,149.131463,,,0,0
3360,,Canberra Railway Stn Wentworth Av,-35.319203,149.147373,,,0,0
3369,,Cowper St before Majura Av,-35.25682,149.139672,,,0,0
3377,,Wattle St before Miller St,-35.249699,149.121427,,,0,0
3378,,Brigalow St before Lyneham Shops,-35.252174,149.123329,,,0,0
3379,,Brigalow St after Lyneham Shops,-35.252172,149.12348,,,0,0
3382,,Ellenborough St before Cossington Smith St,-35.237517,149.125283,,,0,0
3383,,Ellenborough St opp Cossington Smith St,-35.23766,149.125514,,,0,0
3384,,Watson Terminus Aspinall St,-35.2302,149.16192,,,0,0
3385,,Fawkner St before Elouera St,-35.273182,149.135524,,,0,0
3386,,Fawkner St after Elouera St,-35.272622,149.135555,,,0,0
3387,,Fawkner St after Girrahween St,-35.27147,149.135821,,,0,0
3388,,Fawkner St before Girrahween St,-35.271517,149.135701,,,0,0
3389,,Doonkuna St after Donaldson St,-35.275804,149.13734,,,0,0
3390,,Doonkuna St before Donaldson St,-35.275786,149.137212,,,0,0
3391,,Knox St after Dickinson St,-35.237021,149.152391,,,0,0
3401,,City Interchange Plt 10,-35.279369,149.130579,,https://www.transport.act.gov.au/__data/assets/pdf_file/0008/1244195/TC_station_city.pdf,0,0
3402,,City Interchange Plt 11,-35.279291,149.130434,,https://www.transport.act.gov.au/__data/assets/pdf_file/0008/1244195/TC_station_city.pdf,0,0
3403,,Braybrooke St before Battye St,-35.2447,149.0997,,,0,0
3404,,City Interchange Plt 12,-35.278735,149.130509,,https://www.transport.act.gov.au/__data/assets/pdf_file/0008/1244195/TC_station_city.pdf,0,0
3406,,City Interchange Plt 3,-35.278507,149.1297,,https://www.transport.act.gov.au/__data/assets/pdf_file/0008/1244195/TC_station_city.pdf,0,0
3407,,Braybrooke St after Battye St,-35.2443,149.099799,,,0,0
3409,,City Interchange Plt 4,-35.278449,149.130382,,https://www.transport.act.gov.au/__data/assets/pdf_file/0008/1244195/TC_station_city.pdf,0,0
3410,,City Interchange Plt 6,-35.277767,149.130619,,https://www.transport.act.gov.au/__data/assets/pdf_file/0008/1244195/TC_station_city.pdf,0,0
3413,,City Interchange Plt 8,-35.278333,149.13071,,https://www.transport.act.gov.au/__data/assets/pdf_file/0008/1244195/TC_station_city.pdf,0,0
3418,,City Interchange Plt 2,-35.278255,149.128729,,,0,0
3419,,City Interchange Plt 1,-35.278322,149.12815,,,0,0
3420,,City Interchange Plt 9,-35.279067,149.130611,,,0,0
3424,,Milne Bay Rd before Tobruk Rd,-35.292651,149.163207,,,0,0
3427,,Aspinall St opp Roma Mitchell Cr,-35.231061,149.155411,,,0,0
3428,,Aspinall St after Roma Mitchell Cr,-35.231117,149.155275,,,0,0
3429,,Aspinall St opp Mary Kitson St,-35.230562,149.157569,,,0,0
3430,,Aspinall St after Mary Kitson St,-35.230573,149.157742,,,0,0
3431,,McCaughey St after Barry Dr,-35.27281,149.122367,,,0,0
3434,,Ginninderra Dr before Lance Hill Av,-35.199578,149.018662,,,0,0
3437,,Archall St after Cashion Ct,-35.202045,149.015658,,,0,0
3438,,Archdall St before Jonsson Ct,-35.202291,149.015919,,,0,0
3441,,CISAC College St,-35.242914,149.074506,,,0,0
3442,,College St opp CISAC,-35.243081,149.075035,,,0,0
3443,,Lance Hill Av after Santry Pl,-35.196799,149.021797,,,0,0
3444,,Lance Hill Av before Fairlight St,-35.195212,149.020259,,,0,0
3459,,Watkin St after Thynne St,-35.244963,149.095487,,,0,0
3460,,Watkin St after Battye St,-35.245447,149.095273,,,0,0
3467,,Brindabella Business Park Molonglo Dr,-35.315141,149.190314,,,0,0
3469,,8 Brindabella Cct,-35.313168,149.190282,,,0,0
3473,,War Memorial Fairbairn Av,-35.282613,149.150038,,,0,0
3474,,Fairbairn Av opp War Memorial,-35.282709,149.148732,,,0,0
3475,,Aspinall St after Zelling St,-35.229219,149.164793,,,0,0
3476,,Aspinall St after Antill St,-35.229092,149.165467,,,0,0
3486,,Liversidge St before Ellery Cr,-35.282188,149.120969,,,0,0
3487,,Liversidge St after Ellery Cr,-35.282472,149.120889,,,0,0
4005,,Haydon Dr opp Radford College,-35.24282,149.090759,,,0,0
4006,,Radford College College St,-35.242521,149.088549,,,0,0
4007,,Haydon Dr after University Dr,-35.237503,149.090784,,,0,0
4008,,Haydon Dr opp University Dr,-35.237834,149.090972,,,0,0
4009,,Baldwin Dr after Ginninderra Dr,-35.231821,149.092884,,,0,0
4010,,Baldwin Dr before Ginninderra Dr,-35.231787,149.093048,,,0,0
4011,,Maribyrnong Av after Baldwin Dr,-35.229859,149.096648,,,0,0
4012,,Baldwin Dr after 2nd Maribyrnong Av,-35.230009,149.094546,,,0,0
4013,,Maribyrnong Av before Baldwin Dr,-35.230176,149.096721,,,0,0
4014,,Maribyrnong Av after 1st Diamantina Cr,-35.231762,149.099064,,,0,0
4015,,Maribyrnong Av before 2nd Alberga St,-35.232132,149.0994,,,0,0
4016,,Maribyrnong Av opp Gwydir Square,-35.233508,149.102866,,,0,0
4017,,Gwydir Square Maribyrnong Av,-35.233648,149.10273,,,0,0
4018,,Maribyrnong Av opp Daintree Cr,-35.232415,149.107894,,,0,0
4019,,Maribyrnong Av after Daintree Cr,-35.232568,149.107775,,,0,0
4020,,Maribyrnong Av before Wakool Cct,-35.231195,149.110199,,,0,0
4021,,Maribyrnong Av after Ellenborough St,-35.231113,149.110518,,,0,0
4022,,Maribyrnong Av opp Warrego Cct,-35.22948,149.111211,,,0,0
4023,,Maribyrnong Av after Warrego Cct,-35.229359,149.11137,,,0,0
4024,,Maribyrnong Av after Campaspe Cct,-35.22694,149.111114,,,0,0
4025,,Maribyrnong Av after Greenough Cct,-35.227108,149.111269,,,0,0
4026,,Maribyrnong Av before Tyrell Cct,-35.224027,149.110918,,,0,0
4027,,Maribyrnong Av before Ashburton Cct,-35.224243,149.111042,,,0,0
4028,,Maribyrnong Av before 1st Staaten Cr,-35.221239,149.111161,,,0,0
4029,,Maribyrnong Av after Moruya Cct,-35.221306,149.111287,,,0,0
4030,,Maribyrnong Av opp 2nd Yarra St,-35.218999,149.110871,,,0,0
4031,,Maribyrnong Av after 1st Yarra St,-35.219121,149.11107,,,0,0
4032,,80 Maribyrnong Av,-35.217719,149.109135,,,0,0
4033,,Maribyrnong Av before 2nd Onkaparinga Cr,-35.21755,149.108824,,,0,0
4034,,Maribyrnong Av before 2nd Staaten Cr,-35.218604,149.105126,,,0,0
4035,,Maribyrnong Av before 1st Onkaparinga Cr,-35.218432,149.105259,,,0,0
4036,,Kaleen Village Maribyrnong Av,-35.219447,149.102956,,,0,0
4037,,Maribyrnong Av opp Kaleen Village,-35.219273,149.103166,,,0,0
4038,,Maribyrnong Av after 2nd Georgina Cr,-35.219915,149.101614,,,0,0
4039,,Maribyrnong Av before Callabonna St,-35.220012,149.101109,,,0,0
4040,,Chuculba Cr before Baldwin Dr,-35.218505,149.098034,,,0,0
4041,,Chuculba Cr after Baldwin Dr,-35.218427,149.097949,,,0,0
4042,,Chuculba Cr opp Canopus Cr,-35.216209,149.099831,,,0,0
4043,,Chuculba Cr after Canopus Cr,-35.215997,149.099776,,,0,0
4044,,Chuculba Cr before Lenehan St,-35.213748,149.101533,,,0,0
4045,,Chuculba Cr before 1st Spica St,-35.213734,149.101363,,,0,0
4046,,Chuculba Cr before 2nd Antares Cr,-35.211194,149.102043,,,0,0
4047,,Chuculba Cr opp 1st Antares Cr,-35.211217,149.101899,,,0,0
4048,,Chuculba Cr after Nyawi Pl,-35.210207,149.099516,,,0,0
4049,,92 Chuculba Cr,-35.210281,149.099374,,,0,0
4050,,Chuculba Cr after 2nd Mirrabucca Cr,-35.208926,149.09551,,,0,0
4051,,Chuculba Cr after Fornax St,-35.208921,149.095882,,,0,0
4052,,Chuculba Cr after Buriga St,-35.209721,149.093504,,,0,0
4053,,Chuculba Cr before 2nd Centaurus St,-35.209857,149.093469,,,0,0
4054,,Canopus Cr after Achernar Cl,-35.212595,149.091162,,,0,0
4055,,Canopus Cr at 1st Balamara St,-35.212675,149.091052,,,0,0
4056,,Canopus Cr opp Giralang PS,-35.212971,149.094183,,,0,0
4057,,Giralang PS Canopus Cr,-35.212941,149.094748,,,0,0
4058,,Canopus Cr after Fornax St,-35.213877,149.096678,,,0,0
4059,,Canopus Cr after 2nd Tucana St,-35.214529,149.096558,,,0,0
4060,,Canopus Cr after Hirst Pl,-35.215971,149.09814,,,0,0
4061,,Canopus Cr after 1st Tucana St,-35.215962,149.09781,,,0,0
4062,,John Cleland Cr opp 1st Tattersall Cr,-35.226217,149.05816,,,0,0
4063,,John Cleland Cr before 2nd Twelvetrees Cr,-35.225963,149.058508,,,0,0
4064,,Florey Shops John Cleland Cr,-35.224726,149.055,,,0,0
4065,,John Cleland Cr opp Florey Shops,-35.224788,149.055143,,,0,0
4066,,John Cleland Cr opp 2nd Twelvetrees Cr,-35.222826,149.054887,,,0,0
4067,,John Cleland Cr before 1st Twelvetrees Cr,-35.222747,149.055017,,,0,0
4068,,John Cleland Cr before Ginninderra Dr,-35.221539,149.054338,,,0,0
4069,,John Cleland Cr after Ginninderra Dr,-35.221159,149.05433,,,0,0
4070,,Copland Dr after Ginninderra Dr,-35.218764,149.053971,,,0,0
4071,,Copland Dr after Carlile St,-35.218604,149.054245,,,0,0
4072,,Copland College Copland Dr,-35.21243,149.0607,,,0,0
4073,,Copland Dr opp Copland College,-35.212715,149.060718,,,0,0
4074,,Copland Dr opp Keenan St,-35.209752,149.061177,,,0,0
4075,,Copland Dr at Keenan St,-35.209735,149.061362,,,0,0
4076,,Copland Dr before 2nd McEachern Cr,-35.208198,149.06305,,,0,0
4077,,Copland Dr after Meagher Pl,-35.208371,149.062953,,,0,0
4078,,Alpen St after 1st Clifford Cr,-35.20631,149.064551,,,0,0
4079,,Alpen St after Baddeley Cr,-35.206257,149.064694,,,0,0
4080,,Baddeley Cr after Colborne Pl,-35.20486,149.063691,,,0,0
4081,,Baddeley Cr after Broadby Cl,-35.205053,149.063763,,,0,0
4082,,Baddeley St after 1st Hancock St,-35.202836,149.065282,,,0,0
4083,,Baddeley Cr after Garrard St,-35.202596,149.06568,,,0,0
4084,,Baddeley Cr after 2nd Hancock St,-35.200622,149.065989,,,0,0
4085,,Baddeley Cr before Edmunds Pl,-35.200136,149.065821,,,0,0
4086,,Baddeley Cr after Blumental Pl,-35.199292,149.063349,,,0,0
4087,,Baddeley Cr before Crofts Cr,-35.199277,149.0628,,,0,0
4088,,Belconnen Way after Coulter Dr,-35.243748,149.05501,,,0,0
4089,,Kingsford Smith Dr after Magrath Cr,-35.19779,149.060598,,,0,0
4090,,Kingsford Smith Dr opp Magrath Cr,-35.197509,149.060592,,,0,0
4091,,Kingsford Smith Dr opp Spence Shops,-35.194784,149.060626,,,0,0
4092,,Spence Shops Kingsford Smith Dr,-35.194955,149.060724,,,0,0
4093,,Clarey Cr after Clark Cl,-35.19477,149.063759,,,0,0
4094,,Clarey Cr before O'Neill St,-35.194877,149.063736,,,0,0
4095,,Clarey Cr at 2nd Healy St,-35.196798,149.065961,,,0,0
4096,,Clarey Cr at Dunkley Pl,-35.19666,149.06582,,,0,0
4097,,Clarey Cr before Boote St,-35.197685,149.068755,,,0,0
4098,,Clarey Cr before Scattergood Pl,-35.197841,149.06875,,,0,0
4099,,Owen Dixon Dr opp Clarey Cr,-35.197089,149.070549,,,0,0
4101,,Owen Dixon Dr before Clarey Cr,-35.197244,149.070649,,,0,0
4102,,Owen Dixon Dr opp Douglass St,-35.198646,149.072761,,,0,0
4103,,Owen Dixon Dr after Douglass St,-35.198638,149.072573,,,0,0
4104,,Copland Dr after Owen Dixon Dr,-35.200393,149.072741,,,0,0
4105,,Copland Dr before Owen Dixon Dr,-35.200283,149.072709,,,0,0
4111,,Evatt Shops Clancy St,-35.209103,149.073239,,,0,0
4112,,Clancy St opp Evatt Shops,-35.209266,149.073187,,,0,0
4113,,Evatt PS Heydon Cr,-35.207435,149.075167,,,0,0
4114,,Heydon Cr opp Evatt PS,-35.207773,149.074975,,,0,0
4115,,Heydon Cr before Owen Dixon Dr,-35.207408,149.079609,,,0,0
4116,,Heydon Cr after Owen Dixon Dr,-35.207518,149.079967,,,0,0
4129,,Dumas St after 1st Baume Cr,-35.214687,149.073246,,,0,0
4130,,Dumas St before 2nd Vagabond Cr,-35.215085,149.07344,,,0,0
4131,,McKellar Shops Dumas St,-35.217428,149.073884,,,0,0
4132,,Dumas St opp McKellar Shops,-35.217512,149.073712,,,0,0
4133,,Dumas St at 2nd Grover Cr,-35.219519,149.072155,,,0,0
4134,,Dumas St before 2nd Buggy Cr,-35.219424,149.072074,,,0,0
4135,,Dumas St opp 1st Bean Cr,-35.22221,149.073161,,,0,0
4136,,Dumas St after 2nd Bean Cr,-35.222305,149.073065,,,0,0
4137,,Dumas St opp 2nd Bean Cr,-35.22215,149.074637,,,0,0
4138,,Dumas St after 1st Bean Cr,-35.222317,149.074542,,,0,0
4139,,Dumas St after 1st Slessor Cr,-35.220806,149.076077,,,0,0
4140,,Dumas St opp 2nd Slessor Cr,-35.22089,149.07617,,,0,0
4141,,Dumas St at 2nd Slessor Cr,-35.219703,149.07846,,,0,0
4142,,Dumas St after William Slim Dr,-35.219851,149.078704,,,0,0
4143,,Aikman Dr opp UC,-35.238233,149.076885,,,0,0
4144,,Aikman Dr before Townsend Pl,-35.237504,149.076927,,,0,0
4145,,Emu Bank after Aikman Dr,-35.239749,149.074658,,,0,0
4146,,Emu Bank Bus Stn,-35.239589,149.075065,,,0,0
4147,,Charnwood Shops Tillyard Dr,-35.205779,149.035107,,,0,0
4148,,Tillyard Dr opp Charnwood Shops,-35.205979,149.035209,,,0,0
4149,,Tillyard Dr after Geeves Ct,-35.204621,149.038184,,,0,0
4150,,Tillyard Dr after Blackwell Cct,-35.204817,149.038246,,,0,0
4151,,Tillyard Dr after McDougall St,-35.202234,149.041639,,,0,0
4152,,Tillyard Dr after Crawford Cr,-35.202372,149.041592,,,0,0
4153,,Tillyard Dr after Sadleir Pl,-35.20046,149.043039,,,0,0
4154,,Tillyard Dr after Spalding St,-35.200398,149.043279,,,0,0
4155,,Spalding St before Flierl Pl,-35.199292,149.046677,,,0,0
4156,,Spalding St before Crawford Cr,-35.199373,149.046902,,,0,0
4157,,Spalding St after Schwartz Pl,-35.201365,149.049653,,,0,0
4158,,Spalding St opp Schwarz Pl,-35.201262,149.049526,,,0,0
4159,,Spalding St before Kingsford Smith Dr,-35.203272,149.050291,,,0,0
4160,,Spalding St after Kingsford Smith Dr,-35.203425,149.050288,,,0,0
4161,,Alfred Hill Dr opp Henslowe Pl,-35.206616,149.052108,,,0,0
4162,,Alfred Hill Dr after Henslowe Pl,-35.20671,149.051974,,,0,0
4163,,Alfred Hill Dr after Bishop Pl,-35.206658,149.054466,,,0,0
4164,,Alfred Hill Dr before Henslowe Pl,-35.206765,149.054322,,,0,0
4165,,Alfred Hill Dr opp Mount Rogers PS,-35.208411,149.057292,,,0,0
4166,,Mount Rogers PS Alfred Hill Dr,-35.20849,149.056928,,,0,0
4167,,Alfred Hill Dr after 1st Crossley Cl,-35.206841,149.058807,,,0,0
4168,,Alfred Hill Dr after Levey Pl,-35.206296,149.059094,,,0,0
4171,,Moynihan St after 1st Deffell St,-35.214546,149.06178,,,0,0
4172,,Moynihan St after Fitzhardinge Cr,-35.215011,149.063445,,,0,0
4173,,Moynihan St before 2nd Ligertwood St,-35.214853,149.064589,,,0,0
4174,,Moynihan St before Callaghan St,-35.214925,149.06568,,,0,0
4175,,Moynihan St before 2nd Alderman St,-35.21425,149.067248,,,0,0
4176,,Moynihan St after De Lissa St,-35.214263,149.067695,,,0,0
4177,,Moynihan St before Norton St,-35.214357,149.070082,,,0,0
4178,,Moynihan St after William Webb Dr,-35.214789,149.070536,,,0,0
4179,,William Webb Dr opp Callaghan St,-35.216389,149.069943,,,0,0
4180,,William Webb Dr before Callaghan St,-35.216567,149.069534,,,0,0
4181,,169 William Webb Dr,-35.219882,149.06987,,,0,0
4182,,William Webb Dr before Croke Pl,-35.219974,149.069805,,,0,0
4188,,Haydon Dr after College St,-35.24136,149.09007,,,0,0
4189,,Southern Cross Dr after Ross Smith Cr,-35.22898,149.040702,,,0,0
4190,,Southern Cross Dr after Kingsford Smith Dr,-35.228657,149.040553,,,0,0
4191,,Kingsford Smith Dr after Southern Cross Dr,-35.225773,149.036328,,,0,0
4192,,Kingsford Smith Dr before Southern Cross Dr,-35.226321,149.036183,,,0,0
4193,,Kingsford Smith Dr opp St Francis Xavier College,-35.224266,149.037957,,,0,0
4194,,St Francis Xavier College Kingsford Smith Dr,-35.223542,149.039089,,,0,0
4195,,Kingsford Smith Dr opp Krefft St,-35.219613,149.041331,,,0,0
4196,,Kingsford Smith Dr after Ginninderra Dr,-35.219065,149.042245,,,0,0
4197,,Companion Cr after Kingsford Smith Dr,-35.213217,149.045258,,,0,0
4198,,Companion Cr after Dolling Cr,-35.213111,149.045295,,,0,0
4199,,Companion Cr after 2nd Vickers Cr,-35.211349,149.042788,,,0,0
4200,,Companion Cr opp 1st Vickers Cr,-35.211981,149.043421,,,0,0
4201,,Companion Cr before Noble Pl,-35.20844,149.042157,,,0,0
4202,,Companion Cr after 2nd Nulsen Cct,-35.20828,149.042142,,,0,0
4203,,Companion Cr at Homann Pl,-35.208812,149.039325,,,0,0
4204,,Companion Cr at Dobinson Pl,-35.209303,149.038455,,,0,0
4205,,Lhotsky St opp Charnwood Shops,-35.205867,149.033043,,,0,0
4206,,Charnwood Shops Lhotsky St,-35.205488,149.032498,,,0,0
4207,,Lhotsky St after Florey Dr,-35.203023,149.027644,,,0,0
4208,,Lhotsky St after Cartwright St,-35.203168,149.027873,,,0,0
4209,,Lhotsky St before Sport Way,-35.201018,149.02716,,,0,0
4210,,Lhotsky St before Cartwright St,-35.201274,149.027294,,,0,0
4211,,Lhotsky St before Napthali Cl,-35.199125,149.03076,,,0,0
4212,,Lhotsky St at Donnison Pl,-35.199314,149.030612,,,0,0
4213,,Lhotsky St before 2nd Townson Cr,-35.19702,149.033853,,,0,0
4214,,Lhotsky St before 2nd Bettington Cct,-35.197261,149.033634,,,0,0
4215,,Lhotsky St after 2nd Townson Cr,-35.195777,149.035246,,,0,0
4216,,Lhotsky St after Sly Pl,-35.196034,149.035242,,,0,0
4217,,Kerrigan St after Winder Pl,-35.193829,149.034683,,,0,0
4218,,Kerrigan St opp Winder Pl,-35.193735,149.035033,,,0,0
4219,,Shakespeare Cr after Kerrigan St,-35.193188,149.03298,,,0,0
4220,,Shakespeare Cr after Pettifer Pl,-35.193224,149.033089,,,0,0
4221,,Fraser West Terminus Shakespeare Cr,-35.190579,149.036036,,,0,0
4223,,Shakespeare Cr before 2nd Dunbar St,-35.189083,149.038728,,,0,0
4224,,Shakespeare Cr opp 1st Dunbar St,-35.188971,149.038843,,,0,0
4225,,Shakespeare Cr opp 41,-35.189508,149.041677,,,0,0
4226,,41 Shakespeare Cr,-35.189532,149.041553,,,0,0
4227,,Shakespeare Cr opp 25,-35.191559,149.040523,,,0,0
4228,,Shakespeare Cr after Filshie Cl,-35.191592,149.04036,,,0,0
4229,,Kerrigan St after Shakespeare Cr,-35.193692,149.040272,,,0,0
4230,,Kerrigan St after Crowley Ct,-35.193772,149.040123,,,0,0
4231,,Tillyard Dr after Kerrigan St,-35.193181,149.042274,,,0,0
4232,,Tillyard Dr after 2nd Daley Cr,-35.193223,149.042409,,,0,0
4233,,Daley Cr opp Fraser Shops,-35.192678,149.044157,,,0,0
4234,,Fraser Shops Daley Cr,-35.192711,149.044005,,,0,0
4235,,Daley Cr opp 1st Bingley Cr,-35.193471,149.046791,,,0,0
4236,,Daley Cr after 2nd Bingley Cr,-35.193673,149.046525,,,0,0
4237,,Bingley Cr after 2nd Rochford St,-35.190482,149.050413,,,0,0
4238,,Bingley Cr after 2nd Foskett St,-35.190512,149.050176,,,0,0
4239,,Bingley Cr at Vercoe Pl,-35.190442,149.052714,,,0,0
4240,,Bingley Cr opp Crease Pl,-35.190535,149.05305,,,0,0
4241,,Bingley Cr at 1st Brophy St,-35.191048,149.055707,,,0,0
4242,,Bingley Cr at Nish Pl,-35.190989,149.055461,,,0,0
4249,,Kingsford Smith Dr after Alpen St,-35.203487,149.058938,,,0,0
4250,,Kingsford Smith Dr after Le Gallienne St,-35.203008,149.057523,,,0,0
4251,,Kingsford Smith Dr before Le Gallienne St,-35.202913,149.056133,,,0,0
4252,,Kingsford Smith Dr after 1st Bainton Cr,-35.202751,149.055143,,,0,0
4253,,Kingsford Smith Dr before Carandini St,-35.203261,149.05226,,,0,0
4254,,Kingsford Smith Dr after Spalding St,-35.203485,149.05148,,,0,0
4255,,Kingsford Smith Dr after Alfred Hill Dr,-35.20662,149.048956,,,0,0
4256,,Kingsford Smith Dr after Pattinson Cr,-35.206321,149.048811,,,0,0
4257,,Melba Shops Kingsford Smith Dr,-35.2087,149.047657,,,0,0
4258,,Kingsford Smith Dr opp Melba Shops,-35.208192,149.047372,,,0,0
4259,,Verbrugghen St after 1st Grainger Cct,-35.211506,149.050246,,,0,0
4260,,Verbrugghen St after Conley Dr,-35.211315,149.050042,,,0,0
4261,,Verbrugghen St opp Melba HS,-35.213204,149.051151,,,0,0
4262,,Melba HS Verbrugghen St,-35.213177,149.050959,,,0,0
4263,,67 Verbrugghen St,-35.213493,149.054367,,,0,0
4264,,Verbrugghen St before Brownlee Pl,-35.213576,149.054195,,,0,0
4265,,Copland College Verbrugghen St,-35.212967,149.058702,,,0,0
4266,,Verbrugghen St opp Copland College,-35.212854,149.05833,,,0,0
4269,,Coulter Dr before Lachlan St,-35.246719,149.056242,,,0,0
4270,,Coulter Dr before Belconnen Way,-35.245651,149.056165,,,0,0
4271,,Coulter Dr after Lachlan St,-35.24932,149.055736,,,0,0
4272,,Coulter Dr opp Lachlan St,-35.24929,149.055616,,,0,0
4273,,Coulter Dr opp Schumack St,-35.252645,149.05473,,,0,0
4274,,Coulter Dr after Schumack St,-35.252735,149.05459,,,0,0
4275,,Coulter Dr opp Shumack St,-35.255078,149.054122,,,0,0
4276,,Coulter Dr before Shumack St,-35.255246,149.053978,,,0,0
4288,,Belconnen HS Murranji St,-35.247157,149.040404,,,0,0
4291,,Murranji St opp Hawker College,-35.246438,149.032273,,,0,0
4292,,Hawker College Murranji St,-35.246336,149.03232,,,0,0
4293,,Murranji St opp Delamere St,-35.243492,149.032054,,,0,0
4294,,Murranji St after Delamere St,-35.24377,149.031995,,,0,0
4295,,Belconnen Way after Mackinolty St,-35.240775,149.03468,,,0,0
4296,,Belconnen Way before Murranji St,-35.241072,149.035761,,,0,0
4297,,Kingsford Smith Dr after Findlay St,-35.236275,149.032646,,,0,0
4298,,Kingsford Smith Dr opp Findlay St,-35.236747,149.032606,,,0,0
4301,,Findlay St after Kinsella St,-35.234176,149.028405,,,0,0
4302,,Findlay St after Cantor Cr,-35.23388,149.02827,,,0,0
4303,,Fullagar Cr after Davidson St,-35.233268,149.025249,,,0,0
4304,,Fullagar Cr opp Cussen St,-35.232995,149.02426,,,0,0
4305,,Cussen St before Davidson St,-35.233473,149.022406,,,0,0
4306,,Cussen St before Bundey St,-35.23338,149.022401,,,0,0
4307,,Drake Brockman Dr opp Cussen St,-35.233087,149.019524,,,0,0
4308,,Drake Brockman Dr before Cussen St,-35.233035,149.019671,,,0,0
4310,,Starke St before Beaurepaire Cr,-35.227103,149.017232,,,0,0
4311,,Beaurepaire Cr after Starke St,-35.226886,149.016027,,,0,0
4312,,Beaurepaire Cr before Starke St,-35.226774,149.016014,,,0,0
4313,,Beaurepaire Cr before Trickett St,-35.226707,149.013275,,,0,0
4314,,Beaurepaire Cr after Rice Pl,-35.226591,149.013494,,,0,0
4315,,Beaurepaire Cr opp Holt Shops,-35.225134,149.010915,,,0,0
4316,,Holt Shops Beaurepaire Cr,-35.22498,149.011084,,,0,0
4320,,Kingsford Smith School Hardwick Cr,-35.227247,149.023141,,,0,0
4321,,Spofforth St opp Messenger St,-35.22226,149.005964,,,0,0
4322,,Spofforth St before Messenger St,-35.222436,149.006015,,,0,0
4323,,Spofforth St before Southern Cross Dr,-35.220376,149.006943,,,0,0
4324,,Spofforth St after Southern Cross Dr,-35.22024,149.007119,,,0,0
4325,,Southern Cross Dr opp Spofforth St,-35.218075,149.008339,,,0,0
4326,,Southern Cross Dr before Spofforth St,-35.218245,149.008617,,,0,0
4327,,Southern Cross Dr after O'Reilly St,-35.218685,149.011601,,,0,0
4328,,Southern Cross Dr opp O'Reilly St,-35.218777,149.011408,,,0,0
4329,,Southern Cross Dr before 1st Starke St,-35.219386,149.016066,,,0,0
4330,,Southern Cross Dr after 2nd Starke St,-35.219535,149.01631,,,0,0
4331,,YMCA Starke St,-35.221451,149.017274,,,0,0
4332,,Starke St opp YMCA,-35.221708,149.017064,,,0,0
4333,,Kippax Interchange,-35.22243,149.019477,,,0,0
4334,,Kippax Terminus,-35.222482,149.019328,,,0,0
4339,,Fullagar Cr after Northmore Cr,-35.228202,149.028493,,,0,0
4340,,Fullagar Cr opp Northmore Cr,-35.228215,149.028348,,,0,0
4341,,Fullagar Cr opp Higgins Shops,-35.231358,149.02778,,,0,0
4342,,Higgins Shops Fullagar Cr,-35.231312,149.027617,,,0,0
4343,,Castieau St after Dethridge St,-35.230223,149.030829,,,0,0
4344,,Castieau St after Hodges St,-35.230327,149.031137,,,0,0
4345,,Castieau St after Northmore Cr,-35.229846,149.033543,,,0,0
4346,,Castieau St after Kingsford Smith Dr,-35.229967,149.033419,,,0,0
4347,,Wirraway Cr after Kingsford Smith Dr,-35.230911,149.035331,,,0,0
4348,,Wirraway Cr after Ulm St,-35.231014,149.035287,,,0,0
4349,,Southern Cross Early Childhood School Wirraway Cr,-35.231965,149.037159,,,0,0
4350,,Wirraway Cr opp Southern Cross Early Childhood Sch,-35.231926,149.036965,,,0,0
4351,,Ross Smith Cr opp Scullin Shops,-35.233197,149.03929,,,0,0
4352,,Scullin Shops Ross Smith Cr,-35.233359,149.039301,,,0,0
4357,,Southern Cross Dr after Kingsford Smith Dr,-35.226771,149.032838,,,0,0
4358,,Southern Cross Dr after O'Loghlen St,-35.226573,149.033044,,,0,0
4359,,Southern Cross Dr before 1st Starke St,-35.225053,149.031309,,,0,0
4360,,192 Southern Cross Dr,-35.222979,149.030252,,,0,0
4361,,Starke St opp Cranleigh School,-35.225465,149.029155,,,0,0
4362,,Cranleigh School Starke St,-35.225918,149.028369,,,0,0
4363,,Starke St opp Hardwick Cr,-35.228004,149.024459,,,0,0
4364,,Starke St after Hardwick Cr,-35.22786,149.024623,,,0,0
4365,,Hardwick Cr before Powell St,-35.225322,149.021882,,,0,0
4366,,Hardwick Cr after Flack St,-35.225317,149.022051,,,0,0
4367,,O'Reilly St before Osburn Dr,-35.21653,149.010712,,,0,0
4368,,Osburn Dr opp O'Reilly St,-35.215744,149.010708,,,0,0
4369,,Osburn Dr before Lipscomb Pl,-35.213648,149.009055,,,0,0
4370,,Osburn Dr before Hirschfeld Cr,-35.213649,149.00919,,,0,0
4371,,Osburn Dr opp Macgregor Shops,-35.210952,149.010649,,,0,0
4372,,Macgregor Shops Osburn Dr,-35.211256,149.010449,,,0,0
4373,,Osburn Dr after Cannan Cr,-35.209733,149.013038,,,0,0
4374,,Osburn Dr after Chalmers Pl,-35.210096,149.012231,,,0,0
4375,,Osburn Dr before Archdall St,-35.210877,149.017368,,,0,0
4376,,Osburn Dr opp Archdall St,-35.211024,149.017666,,,0,0
4377,,19 Archdall St,-35.208915,149.017472,,,0,0
4378,,Archdall St before Beaney St,-35.208945,149.017619,,,0,0
4379,,Archdall St opp Barrett St,-35.205839,149.016593,,,0,0
4380,,Archdall St after Barrett St,-35.206063,149.01667,,,0,0
4389,,Florey Dr before 2nd Herron Cr,-35.210495,149.02661,,,0,0
4390,,Florey Dr opp  1st Heron Cr,-35.211047,149.026136,,,0,0
4391,,Florey Dr after Dalley Cr,-35.212398,149.025042,,,0,0
4392,,Florey Dr after Osburn Dr,-35.21236,149.02487,,,0,0
4393,,Florey Dr opp Hayward St,-35.213971,149.021402,,,0,0
4394,,Florey Dr after Hayward St,-35.213917,149.021214,,,0,0
4395,,Florey Dr before Southern Cross Dr,-35.21836,149.01938,,,0,0
4396,,Florey Dr after Southern Cross Dr,-35.218318,149.019225,,,0,0
4397,,Southern Cross Dr before Dalley Cr,-35.220281,149.025002,,,0,0
4398,,Southern Cross Dr after Chave St,-35.220645,149.025176,,,0,0
4399,,Dalley Cr before 1st Solomon Cr,-35.219528,149.026495,,,0,0
4400,,Dalley Cr before 2nd Gurner St,-35.219384,149.026965,,,0,0
4401,,Dalley Cr opp 2nd Gurner St,-35.219303,149.028991,,,0,0
4402,,Dalley Cr before 1st Gurner St,-35.219426,149.029101,,,0,0
4410,,Onslow St opp Latham Shops,-35.219237,149.03193,,,0,0
4411,,Latham Shops Onslow St,-35.219136,149.032092,,,0,0
4412,,Onslow St opp Latham PS,-35.220651,149.03403,,,0,0
4413,,Latham PS Onslow St,-35.220412,149.033883,,,0,0
4414,,O'Loghlen St after 1st Chambers St,-35.220482,149.037345,,,0,0
4415,,O'Loghlen St after 1st Stretton Cr,-35.220292,149.037312,,,0,0
4416,,O'Loghlen St before 2nd Milford St,-35.22153,149.038717,,,0,0
4417,,Krefft St before 1st Ennor Cr,-35.222262,149.042754,,,0,0
4418,,Krefft St opp 2nd Ennor Cr,-35.22228,149.04262,,,0,0
4419,,Krefft St opp Barnard Cct,-35.224712,149.043643,,,0,0
4420,,Krefft St before Barnard Cct,-35.224792,149.043542,,,0,0
4421,,Krefft St after 2nd Ennor Cr,-35.225843,149.045799,,,0,0
4422,,Krefft St opp 1st Ennor Cr,-35.225891,149.045387,,,0,0
4423,,Krefft St opp 1st Boswell Cr,-35.2254,149.048432,,,0,0
4424,,Krefft St before 2nd Boswell Cr,-35.225543,149.048444,,,0,0
4425,,Florey PS Krefft St,-35.225887,149.051412,,,0,0
4426,,Krefft St opp Florey PS,-35.225876,149.051219,,,0,0
4427,,Florey Shops Ratcliffe Cr,-35.226839,149.054575,,,0,0
4428,,Ratcliffe Cr opp Florey Shops,-35.226887,149.054364,,,0,0
4429,,Ratcliffe Cr after Connah St,-35.227818,149.056202,,,0,0
4430,,Ratcliffe Cr opp Connah St,-35.227691,149.055931,,,0,0
4431,,Ratcliffe Cr after 1st Lightfoot Cr,-35.230581,149.055299,,,0,0
4432,,Ratcliffe Cr before Woolnough St,-35.230295,149.055416,,,0,0
4433,,Ratcliffe Cr opp 2nd Challinor Cr,-35.23281,149.054609,,,0,0
4434,,Ratcliffe Cr before 2nd Challinor Cr,-35.231848,149.054488,,,0,0
4435,,Ratcliffe Cr after Southern Cross Dr,-35.233517,149.054235,,,0,0
4437,,Shumack St after Harcourt St,-35.253723,149.051652,,,0,0
4438,,Shumack St before 2nd Abernethy St,-35.253673,149.05184,,,0,0
4439,,Weetangera PS Shumack St,-35.250835,149.048951,,,0,0
4440,,Shumack St opp Weetangera PS,-35.251379,149.049185,,,0,0
4441,,Weetangera Shops Shumack St,-35.249269,149.0493,,,0,0
4442,,Shumack St opp Weetangera Shops,-35.249385,149.049599,,,0,0
4443,,Gillespie St before Southwell St,-35.247203,149.047228,,,0,0
4444,,Gillespie St before 2nd Morton St,-35.246981,149.047328,,,0,0
4445,,Gillespie St before Springvale Dr,-35.245408,149.044835,,,0,0
4446,,Gillespie St before 1st Morton St,-35.245379,149.04503,,,0,0
4447,,Hawker Pl opp Hawker Shops,-35.243609,149.043307,,,0,0
4448,,Hawker Shops Hawker Pl,-35.243708,149.043852,,,0,0
4449,,Beetaloo St after Bonrook St,-35.245262,149.040876,,,0,0
4450,,Beetaloo St opp Bonrook St,-35.24524,149.040786,,,0,0
4451,,Erldunda Cctbefore 2nd Woolner Cct,-35.250075,149.040575,,,0,0
4452,,Erldunda Cct opp 2nd Woolner Cct,-35.24942,149.040404,,,0,0
4453,,Erldunda Cct after 1st Ambalindum St,-35.251195,149.0376,,,0,0
4454,,Erldunda Cct before 2nd Kulgera St,-35.251096,149.037729,,,0,0
4455,,Erldunda Cct opp Hawker PS,-35.250389,149.034027,,,0,0
4456,,Hawker PS Erldunda Cct,-35.250785,149.03496,,,0,0
4457,,Erldunda Cct before Mataranka St,-35.248214,149.03212,,,0,0
4458,,Erldunda Cct after Tobermorey Pl,-35.248457,149.032296,,,0,0
4465,,McGinness St after Ross Smith Cr,-35.233485,149.04252,,,0,0
4466,,McGinness St after Keith St,-35.233426,149.042219,,,0,0
4467,,Chewings St opp McGinness St,-35.236429,149.043807,,,0,0
4468,,Chewings St before McGinness St,-35.23627,149.04378,,,0,0
4469,,Chewings St before Petterd St,-35.238229,149.042006,,,0,0
4470,,Chewings St opp Petterd St,-35.23807,149.04193,,,0,0
4471,,Petterd St after Roseby St,-35.239205,149.045751,,,0,0
4472,,Petterd St after 2nd Hannaford St,-35.239286,149.044929,,,0,0
4473,,Petterd St after Halford Cr,-35.239529,149.048526,,,0,0
4474,,Petterd St after Herrgott St,-35.239691,149.048471,,,0,0
4475,,Page Shops Petterd St,-35.240112,149.052355,,,0,0
4476,,Petterd St opp Page Shops,-35.240287,149.052366,,,0,0
4477,,Ogilby Cr before Burkitt St,-35.23874,149.05474,,,0,0
4478,,Ogilby Cr after Kirchauff St,-35.239071,149.054218,,,0,0
4479,,Cohen St Interchange Plt 3,-35.239773,149.060494,,https://www.transport.act.gov.au/__data/assets/pdf_file/0009/1244196/TC_station_cohen.pdf,0,0
4480,,Cohen St Interchange Plt 5,-35.24012,149.059685,,https://www.transport.act.gov.au/__data/assets/pdf_file/0009/1244196/TC_station_cohen.pdf,0,0
4482,,Lance Hill Av before 2nd Evelyn Owen Cr,-35.199308,149.019576,,,0,0
4483,,Lance Hill Av before 1st Alarmon Cr,-35.199308,149.019484,,,0,0
4484,,Lance Hill Av opp 2nd Alarmon Cr,-35.198318,149.020466,,,0,0
4485,,Lance Hill Av after 2nd Alarmon Cr,-35.198246,149.020448,,,0,0
4486,,Archdall St before Hugh McKay Cr,-35.19988,149.015657,,,0,0
4487,,Tillyard Dr before Reuther St,-35.194914,149.041613,,,0,0
4488,,Tillyard Dr before Kerrigan St,-35.195157,149.041469,,,0,0
4489,,Tillyard Dr before Spalding St,-35.198113,149.044625,,,0,0
4490,,Tillyard Dr opp Barber Cr,-35.197113,149.042863,,,0,0
4491,,Florey Dr after 1st Herron Cr,-35.208329,149.027002,,,0,0
4492,,Florey Dr after Handcock Cr,-35.208458,149.026851,,,0,0
4494,,Canberra HS Bindubi St,-35.251789,149.075043,,,0,0
4503,,Bennelong Cr after Lachlan St,-35.248073,149.059013,,,0,0
4504,,Bennelong Cr before Lachlan St,-35.248105,149.058916,,,0,0
4505,,Macquarie PS Bennelong Cr,-35.250936,149.058766,,,0,0
4506,,Bennelong Cr opp Macquarie PS,-35.251092,149.058626,,,0,0
4507,,Bennelong Cr after Roberts St,-35.253309,149.060081,,,0,0
4508,,Bennelong Cr at Liverpool St,-35.25357,149.06047,,,0,0
4509,,Bennelong Cr after Goulburn St,-35.253648,149.063071,,,0,0
4510,,Lachlan St before Bennelong Cr,-35.254134,149.063606,,,0,0
4511,,Redfern St before Allman Cct,-35.256107,149.066213,,,0,0
4512,,Redfern St before Lyttleton Cr,-35.256197,149.066128,,,0,0
4513,,Redfern St after Allman St,-35.255824,149.068373,,,0,0
4514,,Redfern St after Dexter St,-35.256002,149.068224,,,0,0
4515,,Bowman St before Jamison Centre,-35.253155,149.069539,,,0,0
4516,,Bowman St after Jamison Centre,-35.252881,149.069723,,,0,0
4517,,Bowman St opp Jamison Centre,-35.252529,149.07279,,,0,0
4518,,Jamison Centre Bowman St,-35.252547,149.07266,,,0,0
4521,,Aranda PS Bandjalong Cr,-35.256204,149.079656,,,0,0
4522,,Bandjalong Cr opp Aranda PS,-35.256195,149.078506,,,0,0
4523,,Bandjalong Cr before Nungara St,-35.257332,149.08229,,,0,0
4524,,Bandjalong Cr opp Nungara St,-35.25736,149.082128,,,0,0
4525,,Bandjalong Cr before Banambila St,-35.259004,149.084678,,,0,0
4526,,Bandjalong Cr opp Banambila St,-35.259339,149.085632,,,0,0
4527,,Barry Dr opp ANU,-35.272489,149.118165,,,0,0
4528,,ANU Barry Dr,-35.272968,149.119017,,,0,0
4529,,ANU Rimmer St,-35.276452,149.125783,,,0,0
4530,,Marcus Clarke St before Rimmer St,-35.277219,149.12639,,,0,0
4532,,Hennessy St at Greene Pl,-35.244072,149.0721,,,0,0
4533,,Hennessy St at Osborne Pl,-35.244045,149.071975,,,0,0
4534,,Hennessy St after Strong Pl,-35.246351,149.071482,,,0,0
4535,,Hennessy St after Solly Pl,-35.24611,149.071277,,,0,0
4536,,Hennessy St at Gatehouse Pl,-35.248116,149.073622,,,0,0
4537,,Hennessy St after Buik Pl,-35.248249,149.073678,,,0,0
4541,,Ashkanasy Cr after Keenan St,-35.208189,149.066244,,,0,0
4542,,Ashkanasy Cr after Copland Dr,-35.208056,149.066313,,,0,0
4547,,National Hockey Centre Mouat St,-35.244457,149.127216,,,0,0
4548,,Mouat St opp National Hockey Centre,-35.245721,149.127426,,,0,0
4549,,Southwell Park Mouat St,-35.247905,149.131491,,,0,0
4550,,Mouat St opp Southwell Park,-35.248015,149.13131,,,0,0
4568,,Ashkanasy Cr before Hatfield St,-35.210978,149.067758,,,0,0
4569,,Ashkanasy Cr opp Hatfield St,-35.210682,149.06745,,,0,0
4570,,Kingsford Smith Dr after Companion Cr,-35.213285,149.046424,,,0,0
4577,,Macarthur Av before Coolibah Cr,-35.259345,149.121718,,,0,0
4578,,MacArthur Av before Macpherson St,-35.259702,149.121735,,,0,0
4583,,Antill St before Pigot St,-35.248355,149.136252,,,0,0
4584,,Antill St after Badham St,-35.24863,149.136895,,,0,0
4585,,Antill St opp Dickson Shops,-35.248688,149.139628,,,0,0
4586,,Dickson Shops Antill St,-35.248948,149.140063,,,0,0
4587,,Antill St opp Rosevear Pl,-35.248495,149.144652,,,0,0
4588,,Antill St before Rosevear Pl,-35.248738,149.144569,,,0,0
4589,,Antill St before Gale St,-35.248273,149.146685,,,0,0
4590,,Antill St before Hawdon Pl,-35.248428,149.147477,,,0,0
4591,,Antill St before Cadell St,-35.247842,149.150258,,,0,0
4592,,Antill St opp Cadell St,-35.248013,149.150888,,,0,0
4593,,Phillip Av after Antill St,-35.245158,149.153531,,,0,0
4594,,Phillip Av before Antill St,-35.244404,149.15344,,,0,0
4595,,Phillip Av after Shirley St,-35.242984,149.151633,,,0,0
4596,,Phillip Av opp Shirley St,-35.243174,149.152233,,,0,0
4597,,Phillip Av before Bradfield St,-35.241647,149.150016,,,0,0
4605,,Thynne St opp Eardley St,-35.241524,149.092817,,,0,0
4606,,Thynne St after Traeger Ct,-35.241744,149.092714,,,0,0
4607,,Macpherson St after Lilley St,-35.261765,149.120793,,,0,0
4608,,Macpherson St after Tate St,-35.261648,149.120729,,,0,0
4609,,O'Connor Shops Macpherson St,-35.264584,149.122181,,,0,0
4610,,Macpherson St opp O'Connor Shops,-35.26383,149.121572,,,0,0
4611,,McCaughey St before Condamine St,-35.266044,149.123083,,,0,0
4612,,McCaughey St after Condamine St,-35.266449,149.123259,,,0,0
4613,,McCaughey St before Masson St,-35.268419,149.123589,,,0,0
4614,,McCaughey St at Masson St,-35.27014,149.123228,,,0,0
4615,,McCaughey St after Masson St,-35.271669,149.123068,,,0,0
4628,,Liversidge St before Balmain Cr,-35.285087,149.118646,,,0,0
4629,,Liversidge St after Brian Lewis Cr,-35.284778,149.119078,,,0,0
4630,,Old Canberra House Lennox Crossing,-35.288134,149.116909,,,0,0
4631,,Constables Cottage Lennox Crossing,-35.28778,149.117059,,,0,0
4632,,National Museum Lennox Crossing,-35.291673,149.118763,,,0,0
4633,,Edinburgh Av after London Cct,-35.283462,149.125235,,,0,0
4634,,Kerrigan St before Douglas Waterhouse Dr,-35.189139,149.022064,,,0,0
4635,,Kerrigan St opp Traeger St,-35.189198,149.026525,,,0,0
4636,,Redfern St after Templeton St,-35.256659,149.056409,,,0,0
4637,,Redfern St after Coulter Dr,-35.256614,149.056211,,,0,0
4638,,Templeton St opp Ellis St,-35.258956,149.060075,,,0,0
4639,,Templeton St after Ellis St,-35.25915,149.060829,,,0,0
4640,,Templeton St opp Cook Shops,-35.259745,149.063703,,,0,0
4641,,Cook Shops Templeton St,-35.259589,149.063721,,,0,0
4642,,Lyttleton Cr after Wybalena Gr,-35.261414,149.06901,,,0,0
4643,,Lyttleton Cr before 2nd Cambridge St,-35.261531,149.068091,,,0,0
4644,,Lyttleton Cr after Bindubi St,-35.260794,149.072806,,,0,0
4645,,Lyttleton Cr before Bindubi St,-35.260686,149.072562,,,0,0
4646,,Bandjalong Cr after 2nd Barada Cr,-35.26063,149.074891,,,0,0
4647,,Bandjalong Cr after Bindubi St,-35.26051,149.074936,,,0,0
4648,,Bandjalong Cr after Barada Cr,-35.258317,149.075636,,,0,0
4649,,Bandjalong Cr after Amangu St,-35.258419,149.075536,,,0,0
4660,,Limestone Av opp Campbell HS,-35.277824,149.144467,,,0,0
4661,,Campbell HS Limestone Av,-35.27776,149.144801,,,0,0
4662,,Limestone Av opp War Memorial,-35.280274,149.145855,,,0,0
4663,,War Memorial Limestone Av,-35.27992,149.146076,,,0,0
4664,,Campbell Park Offices Northcott Dr,-35.283539,149.170685,,,0,0
4665,,Fairbairn Av after Treloar Cr,-35.283097,149.154778,,,0,0
4666,,Owen Dixon Dr opp Copland Dr,-35.200918,149.074467,,,0,0
4667,,Owen Dixon Dr before Copland Dr,-35.200923,149.074313,,,0,0
4668,,Owen Dixon Dr opp Badenoch Cr,-35.202507,149.076355,,,0,0
4669,,Owen Dixon Dr after Badenoch Cr,-35.2026,149.076287,,,0,0
4670,,Owen Dixon Dr 2nd after Badenoch Cr,-35.204446,149.080391,,,0,0
4671,,Owen Dixon Dr 2nd after Heydon Cr,-35.204532,149.080351,,,0,0
4672,,Owen Dixon Dr opp Heydon Cr,-35.206116,149.081423,,,0,0
4673,,Owen Dixon after Heydon Cr,-35.206186,149.0813,,,0,0
4674,,O'Hanlon Pl opp Federation Square,-35.190361,149.08343,,,0,0
4675,,Federation Square O'Hanlon Pl,-35.190908,149.084191,,,0,0
4676,,McClelland Av opp Moriarty St,-35.18456,149.084194,,,0,0
4677,,McClelland Av before Moriarty St,-35.184474,149.084321,,,0,0
4678,,McClelland Av after Donnan St,-35.181039,149.087314,,,0,0
4679,,McClelland Av before Fitzsimmons St,-35.18114,149.087397,,,0,0
4680,,McClelland Av after Clemenger St,-35.180482,149.09022,,,0,0
4681,,McClelland Av before Metcalfe St,-35.180555,149.090305,,,0,0
4686,,Holy Spirit PS Kelleway Av,-35.18031,149.102059,,,0,0
4687,,Kelleway Av opp Holy Spirit PS,-35.180634,149.101753,,,0,0
4694,,Wanganeen Av after Jabanungga Av,-35.172226,149.109273,,,0,0
4695,,Wanganeen Av before Arabanoo Cr,-35.172233,149.109396,,,0,0
4696,,Ngunnawal PS Wanganeen Av,-35.169599,149.111245,,,0,0
4697,,Wanganeen Av opp Ngunnawal PS,-35.169715,149.111237,,,0,0
4698,,Unaipon Av after Ngunnawal PS,-35.167805,149.112125,,,0,0
4699,,Unaipon Av opp Ngunnawal PS,-35.168029,149.112208,,,0,0
4700,,Unaipon Av before Yumba Av,-35.166204,149.111801,,,0,0
4701,,Unaipon Av after Windradyne St,-35.165951,149.11179,,,0,0
4702,,Unaipon Av before Len Waters St,-35.164238,149.111483,,,0,0
4703,,Unaipon Av after Len Waters St,-35.164067,149.111503,,,0,0
4704,,Len Waters St before Maynard St,-35.162472,149.111535,,,0,0
4705,,Len Waters St after Windradyne St,-35.162483,149.111705,,,0,0
4706,,Mirrabei Dr after Crackajack Way,-35.16367,149.11426,,,0,0
4707,,Mirrabei Dr opp Crackajack Way,-35.163109,149.11395,,,0,0
4708,,Mirrabei Dr opp Wanganeen Av,-35.166097,149.114816,,,0,0
4709,,Mirrabei Dr after Wanganeen Av Northbound,-35.166071,149.114631,,,0,0
4710,,Mirrabei Dr after Wanganeen Av Southbound,-35.170604,149.116687,,,0,0
4711,,Mirrabei Dr before Wanganeen Av,-35.169793,149.116263,,,0,0
4712,,Mirrabei Dr before Shoalhaven Av,-35.173468,149.119819,,,0,0
4713,,Mirrabei Dr after 2nd Paul Coe Cr,-35.172947,149.118855,,,0,0
4714,,Shoalhaven Av before Roderick St,-35.17329,149.122136,,,0,0
4715,,Shoalhaven Av after Roderick St,-35.173328,149.122373,,,0,0
4716,,Burdekin Av before Wanderer Ct,-35.170246,149.120286,,,0,0
4718,,Burdekin Av before Reeve Cl,-35.168405,149.122031,,,0,0
4720,,Paul Coe Cr Shops Paul Coe Cr,-35.174667,149.120042,,,0,0
4721,,Paul Coe Cr after Paul Coe Cr Shops,-35.175402,149.119933,,,0,0
4722,,Paul Coe Cr after Mulleun Cl,-35.176311,149.119521,,,0,0
4723,,Paul Coe Cr after Noongale Cct,-35.176243,149.119676,,,0,0
4724,,Paul Coe Cr after Galmarra St,-35.177829,149.118989,,,0,0
4725,,Paul Coe Cr before Galmarra St,-35.177919,149.11907,,,0,0
4726,,Gungahlin Lakes Club Gundaroo Dr,-35.187963,149.115996,,,0,0
4727,,Gundaroo Dr opp Gungahlin Lakes Club,-35.188227,149.115734,,,0,0
4728,,Lexcen Av after Northam St,-35.183776,149.108168,,,0,0
4729,,Lexcen Av opp Anne Clark Av,-35.184149,149.10634,,,0,0
4730,,Anne Clark Av before Monaghan Pl,-35.184064,149.104627,,,0,0
4731,,Anne Clark Av opp Freda Bennett Cct,-35.18132,149.104023,,,0,0
4733,,Jabanungga Av after Ngunnawal Shops,-35.172969,149.1074,,,0,0
4734,,Jabanungga Av after Manity Cr,-35.17278,149.107344,,,0,0
4735,,Jabanungga Av after 1st Bimbiang Cr,-35.171657,149.105174,,,0,0
4736,,Jabanungga Av after Taylor St,-35.171595,149.10524,,,0,0
4737,,Jabanungga Av before 2nd Bimbiang Cr,-35.171014,149.104016,,,0,0
4742,,Gurrang Av after Wanganeen Av,-35.170969,149.110769,,,0,0
4743,,Gurrang Av opp Deumonga Ct,-35.172337,149.114599,,,0,0
4744,,Gurrang Av before Ferguson Cct,-35.175013,149.113844,,,0,0
4745,,Amagula Av after Ferguson Cct,-35.176849,149.113623,,,0,0
4746,,Amagula Av after Taggerty St,-35.178653,149.114536,,,0,0
4747,,Amagula Av after Yirawala St,-35.180504,149.113069,,,0,0
4748,,Amagula Av before 2nd Bungaree Cr,-35.181511,149.112743,,,0,0
4753,,Gurrang Av after Marungul Av,-35.174649,149.11381,,,0,0
4754,,Sandford St after Flemington Rd,-35.221084,149.142702,,,0,0
4755,,Sandford St before 1st Winchombe Ct,-35.22065,149.141145,,,0,0
4756,,Sandford St opp 2nd Kemble Crt,-35.220562,149.138759,,,0,0
4758,,Hoskins St opp Lysaght St,-35.216571,149.137108,,,0,0
4760,,Lysaght St opp Grimwade St,-35.215059,149.139177,,,0,0
4773,,Kosciuszko Av before Gungahlin Dr,-35.193753,149.126941,,,0,0
4774,,Kosciuszko Av opp Redcliffe St,-35.194948,149.12519,,,0,0
4775,,Kosciuszko Av before Mainwaring Rich Cct,-35.194618,149.125458,,,0,0
4776,,Kosciuszko Av before Bollard St,-35.196326,149.124427,,,0,0
4777,,Kosciuszko Av before Redcliffe St,-35.196258,149.124329,,,0,0
4778,,Kosciuszko Av after Bollard St,-35.197849,149.12336,,,0,0
4779,,Kosciuszko Av opp Bollard St,-35.197692,149.123505,,,0,0
4780,,Palmerston PS Koscuiszko Av,-35.197829,149.121715,,,0,0
4781,,Koscuiszko Av after Palmerston Shops,-35.19768,149.119284,,,0,0
4782,,Kosciuszko Av before Grampians St,-35.196147,149.11598,,,0,0
4783,,Kosciuszko Av before Tiptree Cr,-35.196147,149.116123,,,0,0
4784,,Kosciuszko Av after Bimberi Cr,-35.193962,149.114444,,,0,0
4785,,Kosciuszko Av opp Brinkley Cct,-35.193749,149.114512,,,0,0
4786,,Kosciuszko Av before Burrowa St,-35.192333,149.114625,,,0,0
4787,,Kosciuszko Av before 2nd Freeling Cct,-35.192223,149.114747,,,0,0
4788,,Kosciuszko Av after 2nd Sentry Cr,-35.190581,149.118015,,,0,0
4789,,Kosciuszko Av after Gingera St,-35.190698,149.117768,,,0,0
4790,,Kosciuszko Av after 2nd Buller Cr,-35.189452,149.120827,,,0,0
4791,,Kosciuszko Av after Amarina St,-35.189672,149.120664,,,0,0
4792,,William Slim Dr after Chuculba Cr,-35.209901,149.087964,,,0,0
4793,,William Slim Dr opp Chuculba Cr,-35.209681,149.087909,,,0,0
4803,,Haydon Dr opp Calvary Hospital,-35.25256,149.08695,,,0,0
4804,,Calvary Hospital Haydon Dr,-35.253253,149.086738,,,0,0
4805,,Canopus Cr before Chuculba Cr,-35.210229,149.090401,,,0,0
4806,,Canopus Cr after Chuculba Cr,-35.210308,149.090539,,,0,0
4807,,Copland Dr Spence Terminus,-35.200702,149.068587,,,0,0
4808,,Mirrabei Dr after 2nd Paul Coe Cr,-35.177467,149.124277,,,0,0
4809,,Hirschfeld Cr Macgregor PS SSO,-35.213215,149.01265,,,0,0
4810,,Murranji St opp Alexandria St,-35.242207,149.032764,,,0,0
4811,,Murranji St before Alexandria St,-35.241894,149.033008,,,0,0
4814,,Gold Creek HS Kelleway Av,-35.180255,149.093228,,,0,0
4819,,CIT Bruce Haydon Dr,-35.249345,149.090131,,,0,0
4820,,Ellenborough St opp Daintree Cr,-35.23074,149.113062,,,0,0
4821,,Ellenborough St before Maribyrnong Av,-35.230793,149.112965,,,0,0
4823,,Hawker Shops Belconnen Way,-35.241855,149.043454,,,0,0
4824,,Belconnen Way opp Chewings St,-35.240979,149.038783,,,0,0
4825,,Belconnen Way before Chewings St,-35.240785,149.038716,,,0,0
4826,,St Matthew's PS Belconnen Way,-35.241596,149.043379,,,0,0
4829,,Koscuiszko Av opp Palmerston Shops,-35.197781,149.118819,,,0,0
4830,,Holy Spirit PS Kelleway Av,-35.180638,149.101496,,,0,0
4836,,Anthony Rolfe Av before Gundaroo Rd,-35.182714,149.129582,,,0,0
4839,,Kingsford Smith Dr opp Companion Cr,-35.212405,149.047783,,,0,0
4841,,Plimsoll Dr before 2nd Bott Cr,-35.163345,149.098085,,,0,0
4842,,Plimsoll Dr before Ronald Walker St,-35.162438,149.098352,,,0,0
4843,,Whitrod Av after Kowalski St,-35.15952,149.10133,,,0,0
4844,,Whitrod Av after McGovern St,-35.159636,149.100921,,,0,0
4845,,Amagula Av before 1st Murrung Cr,-35.180862,149.11252,,,0,0
4846,,Plimsoll Dr after Skermer St,-35.166761,149.09624,,,0,0
4847,,Amagula Av after Yirawala St,-35.179144,149.114288,,,0,0
4848,,Amagula Av after Gula Pl,-35.176715,149.113503,,,0,0
4849,,Gurrang Av after Marungul Av,-35.173126,149.114545,,,0,0
4850,,Gurrang Av after Deumonga Ct,-35.171819,149.114044,,,0,0
4851,,Gurrang Av before Wellington St,-35.171149,149.111795,,,0,0
4852,,Jabanungga Av opp 2nd Mundang Av,-35.170098,149.102925,,,0,0
4853,,Horse Park Dr before Yeend Av,-35.167237,149.100629,,,0,0
4855,,Jabanungga Av before 2nd Warabin Cr,-35.16841,149.103566,,,0,0
4857,,Plimsoll Dr before David Miller Cr,-35.168134,149.095593,,,0,0
4859,,Hardwick Cr after Powell St,-35.224266,149.020287,,,0,0
4860,,Hardwick Cr before Flack St,-35.224254,149.020511,,,0,0
4864,,Burramarra Av after Jabanungga Av,-35.160245,149.104473,,,0,0
4865,,Burramarra Av before Kavangal Cct,-35.160209,149.104613,,,0,0
4867,,Ngunnawal PS Unaipon Av,-35.168834,149.112111,,,0,0
4871,,Jabanungga Av after 1st Mundang Cr,-35.169557,149.10297,,,0,0
4872,,Jabanungga Av before 2nd Mundang Cr,-35.168127,149.103261,,,0,0
4873,,Horse Park Dr after Arrabri St,-35.167208,149.100868,,,0,0
4874,,Mirrabei Dr before 1st Paul Coe Cr,-35.177537,149.124129,,,0,0
4875,,Anne Clark Av before Linn St,-35.181971,149.104508,,,0,0
4876,,Anne Clark Av before Lexcen Av,-35.184086,149.104838,,,0,0
4877,,Lexcen Av after Anne Clark Av,-35.184023,149.106348,,,0,0
4878,,Lexcen Av after Arthaldo Ct,-35.183517,149.108917,,,0,0
4880,,Kinsella St after 1st Nicholas St,-35.235934,149.027996,,,0,0
4881,,Kinsella St before Findlay St,-35.235176,149.028403,,,0,0
4882,,Kinsella St before 2nd Nicholas St,-35.237903,149.026385,,,0,0
4883,,Kinsella St after Drake Brockman Dr,-35.237959,149.026142,,,0,0
4884,,Bingley Cr after Woodger Pl,-35.193402,149.051083,,,0,0
4885,,Bingley Cr opp Wickens Pl,-35.193439,149.050835,,,0,0
4886,,Bingley Cr opp Bazley St,-35.192177,149.053183,,,0,0
4887,,Bingley Cr before Bazley St,-35.192385,149.053881,,,0,0
4888,,Tillyard opp Fraser East Terminus,-35.190819,149.045561,,,0,0
4889,,Fraser East Terminus Tillyard Dr,-35.190082,149.046479,,,0,0
4892,,Belconnen Way opp Shumack St,-35.243212,149.048419,,,0,0
4893,,Belconnen Way after Shumack St,-35.243344,149.048133,,,0,0
4894,,Moyes Cr before Southern Cross Dr,-35.220778,149.021638,,,0,0
4895,,Moyes Cr after Postle Cct,-35.220998,149.021747,,,0,0
4896,,Starke St opp Kingsford Smith School,-35.228402,149.019679,,,0,0
4897,,Ashkanasy Cr opp 2nd Pitcairn St,-35.21044,149.069789,,,0,0
4898,,Ashkanasy Cr after 1st Pitcairn St,-35.210387,149.069672,,,0,0
4899,,Kerrigan St before Traeger St,-35.189241,149.026405,,,0,0
49,,Tuggeranong Interchange Plt 5,-35.414225,149.065303,,https://www.transport.act.gov.au/__data/assets/pdf_file/0013/1244200/TC_station_tuggeranong.pdf,0,0
4904,,Jabanunga Av after 1st Bindugan Cr,-35.16362,149.104415,,,0,0
4905,,Jabanunga Av after Yerradhang St,-35.163784,149.10422,,,0,0
4907,,Southern Cross Dr after 1st Starke St,-35.223073,149.029917,,,0,0
4908,,Southern Cross Dr before Chave St,-35.22166,149.027657,,,0,0
4909,,Southern Cross Dr after Dalley Cr,-35.221411,149.027741,,,0,0
4910,,Haydon Dr opp CIT Bruce,-35.249122,149.090046,,,0,0
4911,,Wanganeen Av before Jandamarra St,-35.168506,149.114169,,,0,0
4913,,Horse Park Dr 2nd after Newlop St,-35.169051,149.099937,,,0,0
4914,,Horse Park Dr before Newlop St,-35.169891,149.099436,,,0,0
4918,,Hoskins St before Lysaght St,-35.213924,149.137883,,,0,0
4919,,Hoskins St before Well Station Dr,-35.20856,149.13871,,,0,0
4920,,Hoskins St before Vicars St,-35.20835,149.13901,,,0,0
4923,,Brookes St after Lysaght St,-35.216695,149.141357,,,0,0
4925,,Brookes St after Heffernan St,-35.219285,149.140836,,,0,0
4929,,Canberra Racecourse Randwick Rd,-35.228262,149.140885,,,0,0
4931,,Alpen St after Alfred Hill Dr,-35.204397,149.060159,,,0,0
4932,,Shakespeare Cr opp Fraser West Terminus,-35.19084,149.03554,,,0,0
4933,,Daley Cr opp Fraser East Terminus,-35.19,149.047206,,,0,0
4934,,Hoskins St before Dacre St,-35.213928,149.137656,,,0,0
4935,,Horse Park Dr after Overall Av,-35.170485,149.098764,,,0,0
4937,,Aikman Dr after Joy Cummings Pl,-35.234331,149.078408,,,0,0
4938,,Aikman Dr after Joy Cummings Pl,-35.233616,149.07868,,,0,0
4940,,Alpen St after Kingsford Smith Dr,-35.204257,149.060196,,,0,0
4942,,Starke St after Blackham St,-35.224706,149.030183,,,0,0
4943,,Drake Brockman Dr opp Macnaughton St,-35.231953,149.015742,,,0,0
4944,,Drake Brockman Dr before MacNaughton St,-35.231867,149.015927,,,0,0
4945,,Drake Brockman Dr opp Trickett St,-35.230854,149.011581,,,0,0
4946,,Drake Brockman Dr after Trickett St,-35.230741,149.011692,,,0,0
4947,,Drake Brockman Dr opp Spofforth St,-35.229985,149.008985,,,0,0
4948,,Drake Brockman Dr after Spofforth St,-35.229741,149.008592,,,0,0
4949,,Spofforth St opp 26,-35.22718,149.006269,,,0,0
4950,,26 Spofforth St,-35.226982,149.006265,,,0,0
4951,,Spofforth St opp 44,-35.225278,149.004996,,,0,0
4952,,Beaurepaire Cr before Southern Cross Dr,-35.219735,149.013521,,,0,0
4953,,Beaurepaire Cr after Southern Cross Dr,-35.219837,149.013652,,,0,0
4954,,Beaurepaire Cr after 1st Armstrong Cr,-35.222074,149.011917,,,0,0
4955,,Beaurepaire Cr after 1st Pickworth St,-35.222167,149.012001,,,0,0
4956,,Starke St opp Beaurepaire Cr,-35.226011,149.01689,,,0,0
4957,,Starke St after Beaurepaire Cr,-35.224949,149.016687,,,0,0
4958,,Starke St opp Luke St,-35.22324,149.016754,,,0,0
4959,,Starke St after Luke St,-35.22351,149.016851,,,0,0
4971,,Eardley St after Haydon Dr,-35.240219,149.0916,,,0,0
4972,,College St opp University of Canberra,-35.24254,149.085707,,,0,0
4979,,University of Canberra College St,-35.242314,149.086319,,,0,0
4980,,Kerrigan St after Dunnett St,-35.191624,149.02836,,,0,0
4981,,Kerrigan St after Branson St,-35.191696,149.028468,,,0,0
4982,,Eardley St after Thynne St,-35.240351,149.091581,,,0,0
4983,,Drake Brockman Dr after Kinsella St,-35.239663,149.026113,,,0,0
4984,,Drake Brockman Dr after Kingsford Smith Dr,-35.239823,149.026108,,,0,0
4989,,Castieau St after Fullager Cr,-35.229977,149.028535,,,0,0
4990,,Castieau St before Fullagar Cr,-35.230096,149.028441,,,0,0
4991,,Kingsford Smith Dr before Castieau St,-35.231838,149.034161,,,0,0
4993,,O'Loghlen St before 2nd Stretton Cr,-35.221105,149.038367,,,0,0
5003,,Southern Cross Dr before Ratcliffe Cr,-35.229382,149.044452,,,0,0
5004,,Baldwin Dr after 1st Maribyrnong Av,-35.221942,149.100391,,,0,0
5005,,Baldwin Dr opp 2nd Maribyrnong Av,-35.221828,149.100203,,,0,0
5007,,UC High School Kaleen Baldwin Dr,-35.225262,149.100475,,,0,0
5008,,Baldwin Dr after Kaleen HS,-35.22681,149.099591,,,0,0
5009,,Baldwin Dr before Kaleen HS,-35.226741,149.099511,,,0,0
5010,,Baldwin Dr after Stockman Av,-35.228392,149.097453,,,0,0
5011,,Baldwin Dr before 2nd Maribyrnong Av,-35.228101,149.09828,,,0,0
5012,,Baldwin Dr before Stockman Av,-35.229893,149.094522,,,0,0
5021,,Belconnen Way after Petterd St,-35.243529,149.054637,,,0,0
5022,,Kingsford Smith Dr after Wirraway Cr,-35.231947,149.034461,,,0,0
5024,,Southern Cross Dr before Ross Smith Cr,-35.23041,149.046512,,,0,0
5026,,Kerrigan St opp Douglas Waterhouse Dr,-35.189391,149.021711,,,0,0
5028,,Southern Cross Dr after 1st Ratcliffe St,-35.23202,149.049766,,,0,0
5029,,Southern Cross Dr before Chewings St,-35.232515,149.049989,,,0,0
5030,,Spofforth St after Messsenger St,-35.224972,149.00509,,,0,0
5031,,Canberra Av opp Geelong St,-35.333304,149.166471,,,0,0
5042,,Baldwin Dr opp UC High School Kaleen,-35.224375,149.100503,,,0,0
5043,,Archdall St before Fleay Pl,-35.199948,149.015708,,,0,0
5051,,Gundaroo Dr before Candblebark Cl,-35.196652,149.105751,,,0,0
5052,,Gundaroo Dr after Nudurr Dr,-35.196764,149.105732,,,0,0
5053,,Gundaroo Dr before Burrowa St,-35.19387,149.110729,,,0,0
5054,,Gundaroo Dr after Burrowa St,-35.193861,149.110857,,,0,0
5062,,Temperley St after Curran Dr,-35.184461,149.092027,,,0,0
5063,,Temperley St after Dobbin Cct,-35.184489,149.091844,,,0,0
5064,,Temperley St before Stebman Pl,-35.186136,149.09299,,,0,0
5066,,Temperley St before Vine Pl,-35.188026,149.094157,,,0,0
5067,,Temperley St opp Stedman Pl,-35.186159,149.09281,,,0,0
5068,,Temperley St before Krantzcke Cct,-35.189887,149.095371,,,0,0
5069,,Temperley St before 2nd Sue Geh Cct,-35.188092,149.094191,,,0,0
5070,,Temperley St opp 2nd Sue Geh Cct,-35.192611,149.096317,,,0,0
5071,,Temperley St before 2nd McRitchie Cct,-35.189759,149.095276,,,0,0
5072,,Kelleway Av before Lexcen Av,-35.183399,149.099538,,,0,0
5073,,Kelleway Av after Lexcen Av,-35.183279,149.099546,,,0,0
5074,,Lexcen Av after Temperley St,-35.188621,149.10147,,,0,0
5075,,Lexcen Av opp Temperley St,-35.188677,149.101597,,,0,0
5076,,Temperley St before 1st Sue Geh Cct,-35.192368,149.095814,,,0,0
5077,,Temperley St after 2nd Whitfield Cct,-35.192272,149.098459,,,0,0
5078,,Temperley St after Wendy Ey Pl,-35.190697,149.100057,,,0,0
5079,,Temperley St before 2nd Whitfield Cct,-35.190745,149.100139,,,0,0
5080,,Katherine Av opp Auburn St,-35.16808,149.127998,,,0,0
5081,,Katherine Av before Proserpine Cct,-35.169155,149.129407,,,0,0
5082,,Katherine Av opp Cooloola St,-35.169461,149.131827,,,0,0
5083,,The Valley Av opp Burgmann School Valley Campus,-35.186933,149.124061,,,0,0
5084,,Burgmann Anglican School Valley Campus,-35.187759,149.12331,,,0,0
5085,,Gozzard St before Swain St,-35.18167,149.13312,,,0,0
5086,,Gozzard St before Bruning St,-35.181793,149.133216,,,0,0
5088,,Spofforth St before Drake Brockman Dr,-35.228722,149.007161,,,0,0
5089,,Spofforth St after Strockdill Dr,-35.22876,149.007022,,,0,0
5098,,Lance Hill Av before 1st Evelyn Owen Cr,-35.197162,149.021842,,,0,0
5099,,Lance Hill Av after Shoobridge Cct,-35.195165,149.020372,,,0,0
5101,,Kerrigan St after Polilight St,-35.193721,149.031334,,,0,0
5102,,Kerrigan St before Dunnet St,-35.193759,149.03123,,,0,0
5103,,Catalina Dr before Lancaster Pl,-35.299033,149.1881,,,0,0
5105,,Mt Stromlo HS School Grounds SSO,-35.355019,149.054357,,,0,0
5110,,Dakota Dr before Beaufighter St,-35.300127,149.189025,,,0,0
5111,,Costco Catalina Dr,-35.295663,149.189659,,,0,0
5123,,Covenant College School Grounds SSO,-35.439518,149.090233,,,0,0
5127,,Canberra Av after Ipswich St,-35.330885,149.162578,,,0,0
5128,,Alfred Deakin High School Grounds SSO,-35.324106,149.093537,,,0,0
5137,,Curran Dr after McClelland Av,-35.18226,149.091887,,,0,0
5138,,Curran Dr before McClelland Av,-35.182237,149.091794,,,0,0
5168,,CIT Bruce Battye St,-35.246526,149.096635,,,0,0
5169,,John Paul College Gungahlin Dr,-35.176092,149.101172,,,0,0
5170,,Gungahlin Dr opp John Paul College,-35.175981,149.101379,,,0,0
5171,,Braybrooke St before Ginninderra Dr,-35.240176,149.103025,,,0,0
5172,,Braybrooke St after Ginninderra Dr,-35.240418,149.103165,,,0,0
5173,,Wanganeen Av after Mirrabei Dr,-35.168342,149.11451,,,0,0
5174,,Kingsford Smith Dr before Ginninderra Dr,-35.214779,149.045702,,,0,0
5175,,Temperley St before Wendy Ey Pl,-35.192137,149.098434,,,0,0
5182,,John Paul College School Grounds SSO,-35.177066,149.100304,,,0,0
5501,,Westfield Belconnen Plt 1,-35.238965,149.064084,,https://www.transport.act.gov.au/__data/assets/pdf_file/0014/1244201/TC_station_westfield.pdf,0,0
5502,,Westfield Belconnen Plt 2,-35.23861,149.063546,,https://www.transport.act.gov.au/__data/assets/pdf_file/0014/1244201/TC_station_westfield.pdf,0,0
5503,,Westfield Belconnen Platform 1 Set Down Only,-35.238854,149.063994,,https://www.transport.act.gov.au/__data/assets/pdf_file/0014/1244201/TC_station_westfield.pdf,0,0
5504,,Westfield Belconnen Platform 2 Set Down Only,-35.238655,149.063586,,,0,0
5511,,Belconnen Interchange Plt 1,-35.239758,149.069786,,https://www.transport.act.gov.au/__data/assets/pdf_file/0010/1244197/TC_station_community.pdf,0,0
5512,,Belconnen Interchange Plt 2,-35.239779,149.069179,,https://www.transport.act.gov.au/__data/assets/pdf_file/0010/1244197/TC_station_community.pdf,0,0
5513,,Belconnen Interchange Plt 3,-35.239813,149.068407,,https://www.transport.act.gov.au/__data/assets/pdf_file/0010/1244197/TC_station_community.pdf,0,0
5514,,Belconnen Interchange Plt 4,-35.240007,149.067995,,https://www.transport.act.gov.au/__data/assets/pdf_file/0010/1244197/TC_station_community.pdf,0,0
5515,,Belconnen Interchange Plt 5,-35.240015,149.068853,,https://www.transport.act.gov.au/__data/assets/pdf_file/0010/1244197/TC_station_community.pdf,0,0
5517,,Belconnen Interchange Arrivals,-35.239982,149.069041,,https://www.transport.act.gov.au/__data/assets/pdf_file/0010/1244197/TC_station_community.pdf,0,0
5518,,Belconnen Interchange Arrivals,-35.239792,149.069006,,,0,0
5520,,Eastern Valley Way Bus Stn,-35.241537,149.073309,,,0,0
5521,,Eastern Valley Way after Emu Bank Dr,-35.240701,149.07349,,,0,0
5901,,Burdekin Av opp Amaroo School,-35.165749,149.126804,,,0,0
5902,,Burdekin Av opp Good Shepherd PS,-35.166132,149.12472,,,0,0
5903,,Burdekin Av before Traine Ct,-35.168446,149.122128,,,0,0
5904,,Burdekin Av after Bywaters St,-35.17072,149.120951,,,0,0
5994,,Galmarra St after Paul Coe Cr,-35.17866,149.121054,,,0,0
5995,,Galmarra St before Paul Coe Cr,-35.178702,149.12133,,,0,0
5996,,Paul Coe Cr after Nona Pl,-35.177876,149.122262,,,0,0
5997,,Good Shepherd PS Burdekin Av,-35.166072,149.124589,,,0,0
5999,,Paul Coe Cr after Kardang St,-35.178271,149.122458,,,0,0
6000,,Amaroo School Burdekin Av,-35.16561,149.12735,,,0,0
6001,,Katherine Av opp Clarendon St,-35.169912,149.13443,,,0,0
6005,,Jane Sutherland St after Tom Roberts Av,-35.467028,149.105954,,,0,0
6006,,Well Station Dr before Kings Canyon St,-35.20962,149.155529,,,0,0
6007,,Well Station Dr opp Kings Canyon St,-35.20974,149.15528,,,0,0
6008,,Well Station Dr after Albatross Cr,-35.20528,149.163459,,,0,0
6009,,Well Station Dr opp Albatross Cr,-35.205541,149.163469,,,0,0
6013,,Templestowe Av before Morrison St,-35.465923,149.110891,,,0,0
6014,,Templestowe Av after Jane Sutherland St,-35.465766,149.111085,,,0,0
6015,,Templestowe Av after 2nd Montefiore Cr,-35.466455,149.108535,,,0,0
6016,,Templestowe Av before Humphrey St,-35.466517,149.108445,,,0,0
6018,,Templestowe Av before Tom Roberts Av,-35.465489,149.106581,,,0,0
6024,,Gundaroo Dr after Hollingsworth St,-35.180842,149.140597,,,0,0
6025,,Gundaroo Dr before Pallin St,-35.181016,149.140443,,,0,0
6026,,Gundaroo Dr before Hollingsworth St,-35.180638,149.138532,,,0,0
6027,,Gundaroo Dr after Pallin St,-35.180792,149.138466,,,0,0
6028,,Gundaroo Dr before Nellie Hamilton Av,-35.180153,149.135592,,,0,0
6029,,Gundaroo Dr after Gungahlin Pl,-35.180275,149.135451,,,0,0
6030,,Gundaroo Dr before Nari St,-35.183579,149.124761,,,0,0
6031,,Gundaroo Dr after Ginn St,-35.184786,149.122715,,,0,0
6032,,Katherine Av before Cooloola St,-35.169542,149.131802,,,0,0
6033,,Katherine Av before Clarendon St,-35.170167,149.134901,,,0,0
6034,,Katherine Av after 2nd Carstairs Cct,-35.169593,149.13785,,,0,0
6035,,Katherine Av before 1st Benaroon Cct,-35.169806,149.137682,,,0,0
6038,,Horse Park Dr after Gundaroo Dr,-35.175771,149.139696,,,0,0
6039,,Horse Park Dr before David Walsh Av,-35.174589,149.139805,,,0,0
6045,,Kerrigan St after Lance Hill Av,-35.193226,149.018717,,,0,0
6046,,Kerrigan St before Lance Hill Av,-35.193116,149.018833,,,0,0
6048,,Katherine Av before Shoalhaven Av,-35.167853,149.127872,,,0,0
6049,,Katherine Av before Timboram St,-35.169272,149.129446,,,0,0
6050,,Nullarbor Av after Adder St,-35.20205,149.156836,,,0,0
6051,,Nullarbor Av after Katoomba St,-35.201965,149.156548,,,0,0
6052,,Cultivation St before Angora St,-35.200195,149.158347,,,0,0
6053,,Cultivation St after Dimby St,-35.200681,149.157932,,,0,0
6054,,Cultivation St before Tanami St,-35.198599,149.159489,,,0,0
6055,,Cultivation St after Tanami St,-35.19852,149.15942,,,0,0
6056,,Cultivation St before Granites St,-35.196338,149.160287,,,0,0
6057,,Cultivation St opp Granites St,-35.196452,149.160208,,,0,0
6058,,Jenolan St before Cultivation St,-35.195551,149.158305,,,0,0
6059,,Jenolan St after Cultivation St,-35.195413,149.1582,,,0,0
6060,,Mapleton Av opp Nimbera St,-35.194806,149.159278,,,0,0
6061,,Mapleton Av after Nimbera St,-35.1947,149.159307,,,0,0
6069,,Anthony Rolfe Av after DeBortoli St,-35.186391,149.152152,,,0,0
6070,,Nullarbor Av opp Phantom St,-35.200872,149.161435,,,0,0
6071,,Nullarbor Av after Cape York St,-35.201326,149.163061,,,0,0
6073,,Mapleton Av opp Mother Teresa School,-35.194383,149.154292,,,0,0
6074,,Mother Teresa School Mapleton Av,-35.194468,149.15448,,,0,0
6075,,Grampians St before Clear St,-35.197955,149.114545,,,0,0
6076,,Grampians St opp Clear St,-35.198273,149.114207,,,0,0
6078,,Hoskins St after Oodgeroo Av,-35.202612,149.139937,,,0,0
6079,,Hoskins St before Oodgeroo Av,-35.202451,149.139847,,,0,0
6080,,Hoskins St after Well Station Dr,-35.205577,149.139295,,,0,0
6081,,Hoskins St before Daniels St,-35.204822,149.139544,,,0,0
6088,,Amy Ackman St before Francis Forde St,-35.171081,149.141903,,,0,0
6089,,Amy Ackman St after Francis Forde St,-35.171053,149.14178,,,0,0
6090,,Amy Ackman St before Quinane Av,-35.166279,149.145078,,,0,0
6091,,Amy Ackman St after Helen Leonard Cr,-35.166789,149.144392,,,0,0
6092,,Well Station Dr after Flemington Rd,-35.208676,149.148401,,,0,0
6093,,Well Station Dr before Flemington Rd,-35.208848,149.148755,,,0,0
6100,,Redruth St opp Crace Shops,-35.201944,149.106943,,,0,0
6101,,Bernard Heinze Av after Gussey St,-35.157962,149.123381,,,0,0
6102,,Bernard Heinze Av before Tycho St,-35.157867,149.122249,,,0,0
6103,,Bernard Heinze Av after Yidaki Way,-35.1575,149.11814,,,0,0
6104,,Bernard Heinze Av before Crackajack Way,-35.15752,149.117899,,,0,0
6105,,Mirrabei Dr after Yamma Way,-35.155803,149.11438,,,0,0
6106,,Mirrabei Dr after O'Keefe Av,-35.15471,149.114931,,,0,0
6107,,Mirrabei Dr after Len Waters St,-35.158757,149.113172,,,0,0
6108,,Mirrabei Dr before Len Waters St,-35.158955,149.11326,,,0,0
6109,,Casey Market Town Kingsland Pde,-35.17378,149.096479,,,0,0
6110,,Kingslande Pde opp Casey Market Town,-35.174791,149.096054,,,0,0
6111,,Crackajack Way before Bandstand St,-35.15947,149.117599,,,0,0
6112,,Crackajack Way opp Bandstand St,-35.16007,149.11819,,,0,0
6113,,Margaret Hendry School Sutherland Cr,-35.151599,149.114478,,,0,0
6114,,Sutherland Cr opp Margaret Hendry School,-35.150882,149.114724,,,0,0
6115,,Sutherland Cr opp Chadwick St,-35.148553,149.112316,,,0,0
6116,,Sutherland Cr after Chadwick St,-35.148476,149.113197,,,0,0
6117,,Sutherland Cr opp Bischoff St,-35.149293,149.108768,,,0,0
6118,,Sutherland Cr before Bischoff St,-35.149104,149.108649,,,0,0
6119,,Grenfell Av before Morath St,-35.15319,149.1045,,,0,0
6120,,Grenfell Av after Holdford St,-35.153439,149.1048,,,0,0
6121,,Horse Park Dr before Burrumarra Av,-35.157162,149.103772,,,0,0
6122,,Horse Park Dr before Grenfell Av,-35.156837,149.103952,,,0,0
6126,,Horse Park Dr after Katherine Av,-35.168686,149.138554,,,0,0
6127,,Horse Park Dr opp Katherine Av,-35.169984,149.139125,,,0,0
6128,,Horse Park Dr before Roden Cutler Dr,-35.162708,149.129568,,,0,0
6129,,Amaroo School Horse Park Dr,-35.162945,149.12944,,,0,0
6130,,The Valley Av opp Gungahlin Leisure Centre,-35.186881,149.12961,,,0,0
6131,,Gungahlin Leisure Centre The Valley Av,-35.186798,149.129603,,,0,0
6132,,The Valley Av after Warwick St,-35.186475,149.12658,,,0,0
6133,,The Valley Av before Warwick St,-35.186416,149.126662,,,0,0
6134,,Crace Shops Redruth St,-35.202087,149.107084,,,0,0
6140,,Anthony Rolfe Av at Hammer St,-35.185289,149.145381,,,0,0
6141,,Anthony Rolfe Av after Eva West St,-35.185027,149.145652,,,0,0
6142,,Anthony Rolfe Av after Wizard St,-35.185901,149.149099,,,0,0
6145,,Anthony Rolfe Av before Rosanna St,-35.185643,149.149372,,,0,0
6148,,Langtree Cr opp 1st Cocoparra Cr,-35.205259,149.109677,,,0,0
6149,,Langtree Cr after 2nd Cocoparra Cr,-35.205278,149.109019,,,0,0
6152,,Langtree Cr after Fergus St,-35.203968,149.114249,,,0,0
6154,,Katherine Av opp Amaroo Shops,-35.164467,149.130583,,,0,0
6155,,Bimberi Centre,-35.22263,149.156139,,,0,0
6156,,Kaleen PS School Grounds SSO,-35.224637,149.113164,,,0,0
6157,,Langtree Cr after Geegeela St,-35.205044,149.113904,,,0,0
6158,,Nullarbor Av after Flemington Rd,-35.200884,149.148575,,,0,0
6159,,Nullarbor Av before Flemington Rd,-35.200702,149.148615,,,0,0
6165,,Burgmann Anglican School Forde Campus,-35.170833,149.143845,,,0,0
6175,,Amaroo Shops Katherine Av,-35.16514,149.130674,,,0,0
6180,,Oodgeroo Av before Kilmeny Cl,-35.198699,149.144222,,,0,0
6181,,Oodgeroo Av after Nullarbor Av,-35.198979,149.14394,,,0,0
6182,,Manning Clark Cr before Whitington St,-35.193133,149.14573,,,0,0
6183,,Manning Clark Cr before Alice Crist St,-35.193042,149.14597,,,0,0
6184,,Manning Clark Cr opp Barbara Jefferis St,-35.189994,149.143399,,,0,0
6185,,Manning Clark Cr after Barbara Jefferis St,-35.189996,149.143548,,,0,0
6186,,Oodgeroo Av before Brissenden St,-35.200275,149.141536,,,0,0
6187,,Oogeroo Av after Rolls St,-35.200395,149.141597,,,0,0
6188,,Nullarbor Av before Pinnacles St,-35.201305,149.151607,,,0,0
6189,,Nullarbor Av after Wimmera St,-35.201177,149.151439,,,0,0
6190,,Castleton Cr before Finlay Pl,-35.411696,149.113881,,,0,0
6193,,Anthony Rolfe Av after Horse Park Dr,-35.185036,149.155123,,,0,0
6199,,Bettong Av before Dragon St,-35.193113,149.163538,,,0,0
6200,,Bettong Av before Hawksbill St,-35.192591,149.16399,,,0,0
6201,,Bettong Av opp Shingleback St,-35.187479,149.162,,,0,0
6202,,Bettong Av after Shingleback St,-35.18767,149.16278,,,0,0
6203,,Bettong Av before Gecko Way,-35.183306,149.158707,,,0,0
6204,,Bettong Av after Pipistrelle St,-35.183203,149.159248,,,0,0
6304,,Overall Av after Shedden St,-35.171076,149.09475,,,0,0
6305,,Overall Av after Kingsland Pde,-35.171245,149.095491,,,0,0
6306,,Overall Av opp Tippett St,-35.172424,149.091788,,,0,0
6307,,Overall Av before Tippett St,-35.172561,149.091868,,,0,0
6308,,Overall Av after Powley St,-35.175938,149.090712,,,0,0
6309,,Overall Av before 2nd John Crawford Cr,-35.174598,149.090938,,,0,0
6310,,David Walsh Av after Zakharov Av,-35.175171,149.146639,,,0,0
6311,,David Walsh Av before Desmond Ln,-35.17581,149.146299,,,0,0
6312,,Zakharov Av after Justice Kelly St,-35.171357,149.148838,,,0,0
6313,,Zakharov Av after Alice Berry St,-35.171813,149.148516,,,0,0
6315,,Forde Shops Francis Forde Bvd,-35.171132,149.143074,,,0,0
6316,,Amy Ackman St after Handbury Way,-35.163469,149.148748,,,0,0
6317,,Amy Ackman St after Turbayne Cr,-35.162506,149.149863,,,0,0
6318,,Handbury St before Amy Ackman St,-35.159351,149.151483,,,0,0
6319,,Handbury Way before Mulligans Flat Rd,-35.159173,149.150248,,,0,0
6320,,Henry Williams St before Duguid St,-35.15701,149.147019,,,0,0
6321,,Henry Williams after Mabo Bvd,-35.157497,149.146686,,,0,0
6322,,Essie Coffey St before Quagliotti St,-35.153713,149.143753,,,0,0
6323,,Essie Coffey St before Margaret Tucker St,-35.15378,149.143459,,,0,0
6324,,Essie Coffey St before Roy Marika St,-35.153971,149.139945,,,0,0
6325,,Essie Coffey St before Irinyili St,-35.1541,149.13954,,,0,0
6326,,Roden Cutler Dr before Essie Coffey St,-35.155241,149.13466,,,0,0
6327,,Roden Cutler Dr after Essie Coffey St,-35.155847,149.134831,,,0,0
6328,,Mobourne St before Mallett St,-35.16054,149.13693,,,0,0
6329,,Mobourne St before Ben Blakeney St,-35.16044,149.137,,,0,0
6330,,Bonner Shops Mabo Bvd,-35.161314,149.139551,,,0,0
6331,,Neville Bonner PS Mabo Bvd,-35.162156,149.139512,,,0,0
6332,,Langtree Cr before 1st Drooka Cr,-35.200692,149.113629,,,0,0
6333,,Langtree Cr opp Jellicoe St,-35.200609,149.113309,,,0,0
6334,,Abena Av before Dobikin St,-35.200644,149.104121,,,0,0
6335,,Abena Av after Taplow St,-35.200769,149.104088,,,0,0
6338,,David Walsh Av opp Max Purnell St,-35.178853,149.144723,,,0,0
6339,,David Walsh Av before Max Purnell St,-35.17891,149.144269,,,0,0
6340,,Manning Clark Cr before Isaacson St,-35.193262,149.147368,,,0,0
6341,,Manning Clark Cr before Oodgeroo Av,-35.193387,149.147348,,,0,0
7009,,The Valley Av before Manning Clark Cr,-35.18837,149.14218,,,0,0
7010,,The Valley Av after Manning Clark Cr,-35.188338,149.140597,,,0,0
7011,,Gungahlin Place Plt 3,-35.18535,149.13516,,https://www.transport.act.gov.au/__data/assets/pdf_file/0003/1244199/TC_station_gungahlin.pdf,0,0
7012,,Gungahlin Place Plt 4,-35.18461,149.134956,,https://www.transport.act.gov.au/__data/assets/pdf_file/0003/1244199/TC_station_gungahlin.pdf,0,0
8888,,Regatta Point Commonwealth Av,-35.288396,149.127827,,,0,0
8889,,Commonwealth Av opp Regatta Point,-35.288746,149.127372,,,0,0
940,,Cohen St Interchange Plt 6,-35.24,149.060282,,https://www.transport.act.gov.au/__data/assets/pdf_file/0009/1244196/TC_station_cohen.pdf,0,0
941,,Cohen St Interchange Plt 1,-35.239471,149.06032,,https://www.transport.act.gov.au/__data/assets/pdf_file/0009/1244196/TC_station_cohen.pdf,0,0
942,,Cohen St Interchange Plt 2,-35.2396,149.06022,,https://www.transport.act.gov.au/__data/assets/pdf_file/0009/1244196/TC_station_cohen.pdf,0,0
945,,Dickson Interchange Plt 1,-35.251049,149.134937,,https://www.transport.act.gov.au/__data/assets/pdf_file/0011/1244198/TC_station_dickson.pdf,0,0
946,,Dickson Interchange Plt 2,-35.251121,149.13443,,https://www.transport.act.gov.au/__data/assets/pdf_file/0011/1244198/TC_station_dickson.pdf,0,0
956,,Cohen St Interchange Arrivals,-35.239985,149.060265,,https://www.transport.act.gov.au/__data/assets/pdf_file/0009/1244196/TC_station_cohen.pdf,0,0
959,,Cohen St Interchange,-35.239801,149.06032,,https://www.transport.act.gov.au/__data/assets/pdf_file/0009/1244196/TC_station_cohen.pdf,0,0